{
"type": "FeatureCollection",
"crs": { "type": "name", "properties": { "name": "urn:ogc:def:crs:OGC:1.3:CRS84" } },
                                                                                
"features": [
{ "type": "Feature", "properties": { "Name": "Biblioteca Județeană „Astra”, Sibiu", "Description": "<div dir=\"ltr\">Str. George Baritiu, Nr. 5, 7, Sibiu<\/div><div dir=\"ltr\"><a href=\"http:\/\/www.bjastrasibiu.ro\/\" target=\"_blank\">http:\/\/www.bjastrasibiu.ro\/<\/a><br>Catalog: <a href=\"http:\/\/www.bjastrasibiu.ro\/Liberty3\/gateway\/gateway.exe?application=Liberty3&amp;displayform=opac\/main\" target=\"_blank\">http:\/\/www.bjastrasibiu.ro\/Liberty3\/gateway\/gateway.exe?application=Liberty3&amp;displayform=opac\/main<\/a><br>&nbsp;<\/div>" }, "geometry": { "type": "Point", "coordinates": [ 24.14625, 45.793396, 0.0 ] } },
{ "type": "Feature", "properties": { "Name": "Biblioteca Județeană Alba", "Description": "<font face=\"arial\" size=\"2\">Strada Camil Velican 22, Alba Iulia, Romania<\/font><br><div><font face=\"arial\" size=\"2\"><a href=\"http:\/\/www.bjalba.ro\/\" target=\"_blank\">http:\/\/www.bjalba.ro\/<\/a><\/font><\/div><div><font face=\"arial\" size=\"2\"><br><\/font><\/div>" }, "geometry": { "type": "Point", "coordinates": [ 23.583103, 46.07074, 0.0 ] } },
{ "type": "Feature", "properties": { "Name": "Biblioteca Județeană „A.D. Xenopol”, Arad", "Description": "<div dir=\"ltr\">Arad, str. Gheorghe Popa de Teiuș, nr. 2-4.<br><a href=\"http:\/\/www.bibliotecaarad.ro\" target=\"_blank\">http:\/\/www.bibliotecaarad.ro<\/a><br>Catalog:&nbsp;<a href=\"http:\/\/catalog.bibliotecaarad.ro:8080\/toread\/opac\" target=\"_blank\">http:\/\/catalog.bibliotecaarad.ro:8080\/toread\/opac<\/a><\/div><img src=\"https:\/\/cbks0.google.com\/cbk?output=thumbnail&amp;w=90&amp;h=68&amp;ll=46.176937,21.315606&amp;thumb=0\">" }, "geometry": { "type": "Point", "coordinates": [ 21.315605, 46.176937, 0.0 ] } },
{ "type": "Feature", "properties": { "Name": "Biblioteca Județeană „Dinicu Golescu” Argeș", "Description": "<div dir=\"ltr\">Str. Victoriei nr. 18, 110017, Pitești, Argeș<br><a href=\"http:\/\/www.bjarges.ro\/\" target=\"_blank\">http:\/\/www.bjarges.ro\/<\/a><\/div>" }, "geometry": { "type": "Point", "coordinates": [ 24.871738, 44.858181, 0.0 ] } },
{ "type": "Feature", "properties": { "Name": "Biblioteca Județeană „Costache Sturdza”, Bacău", "Description": "<div dir=\"ltr\"><a href=\"http:\/\/86.122.29.154:7070\/bjbc\" target=\"_blank\">http:\/\/86.122.29.154:7070\/bjbc<\/a><br>Catalog: <a href=\"http:\/\/www.bjbc.ro:8081\/opac\" target=\"_blank\">http:\/\/www.bjbc.ro:8081\/opac<\/a><\/div>" }, "geometry": { "type": "Point", "coordinates": [ 26.904612, 46.559101, 0.0 ] } },
{ "type": "Feature", "properties": { "Name": "Biblioteca Județeană Bistrița Năsăud", "Description": "<div dir=\"ltr\" style=\"font-family:arial;font-size:10pt\">Str. Alexandru Odobescu nr. 11,&nbsp;Bistrita, Romania&nbsp;<br><a href=\"http:\/\/www.bjbn.ro\/\" target=\"_blank\">http:\/\/www.bjbn.ro\/<\/a><\/div><div dir=\"ltr\"><font face=\"arial\" size=\"2\"><a href=\"https:\/\/www.facebook.com\/pages\/Biblioteca-Judeteana-Bistrita-Nasaud\/1435775989981595\" target=\"_blank\">https:\/\/www.facebook.com\/pages\/Biblioteca-Judeteana-Bistrita-Nasaud\/1435775989981595<\/a><\/font><\/div>" }, "geometry": { "type": "Point", "coordinates": [ 24.493717, 47.128868, 0.0 ] } },
{ "type": "Feature", "properties": { "Name": "Biblioteca Judeţeană „Kájoni János”", "Description": "<span style=\"font-family:arial\">Str. Stadionului nr. 1, Miercurea Ciuc<\/span><font color=\"#333333\" face=\"arial, georgia\"><span style=\"line-height:20px\">, 530223<\/span><\/font><div style=\"font-family:arial\"><a href=\"http:\/\/biblioteca.judetulharghita.ro\/ro\" target=\"_blank\">site<\/a>&nbsp;<a href=\"https:\/\/www.facebook.com\/pages\/K%C3%A1joni-J%C3%A1nos-Megyei-K%C3%B6nyvt%C3%A1r-Biblioteca-Jude%C5%A3ean%C4%83-K%C3%A1joni-J%C3%A1nos\/261264613948693\" target=\"_blank\">facebook<\/a><\/div><div style=\"font-family:arial\"><a href=\"http:\/\/biblioteca.judetulharghita.ro\/ro\/h\/129\/catalog-online\" target=\"_blank\">catalog<\/a><\/div><div style=\"font-family:arial\"><br>&nbsp;<\/div>" }, "geometry": { "type": "Point", "coordinates": [ 25.804777, 46.364243, 0.0 ] } },
{ "type": "Feature", "properties": { "Name": "Biblioteca Judeţeană Covasna „Bod Péter”", "Description": "<a href=\"http:\/\/www.kmkt.ro\/\" target=\"_blank\">http:\/\/www.kmkt.ro\/<\/a><br><span>Gábor Áron, 14<\/span><br><span>Sf. Gheorghe \/ Sepsiszentgyörgy 520008<\/span><br><span>0267 351 609<\/span><br>" }, "geometry": { "type": "Point", "coordinates": [ 25.785362, 45.865673, 0.0 ] } },
{ "type": "Feature", "properties": { "Name": "Biblioteca Judeteană Brașov", "Description": "<a href=\"http:\/\/www.bjbv.ro\/default.php\" target=\"_blank\">Site-ul Bibliotecii<\/a><br><a href=\"http:\/\/81.18.94.103\/liberty3\/gateway\/gateway.exe?application=Liberty3&amp;displayform=opac\/main\" target=\"_blank\">Catalog Liberty3<\/a><br><img src=\"https:\/\/cbks0.google.com\/cbk?output=thumbnail&amp;w=90&amp;h=68&amp;ll=45.645737,25.587158&amp;thumb=0\"><img src=\"https:\/\/cbks0.google.com\/cbk?output=thumbnail&amp;w=90&amp;h=68&amp;ll=45.645737,25.587158&amp;thumb=0\">" }, "geometry": { "type": "Point", "coordinates": [ 25.587158, 45.645737, 0.0 ] } },
{ "type": "Feature", "properties": { "Name": "Biblioteca Municipală \"Báró Wesselényi Miklós\", Târgu Secuiesc", "Description": "<div dir=\"ltr\">Biblioteca Municipală „Báró Wesselényi Miklós”, Târgu Secuiesc<\/div>" }, "geometry": { "type": "Point", "coordinates": [ 26.132523, 46.000172, 0.0 ] } },
{ "type": "Feature", "properties": { "Name": "Biblioteca Judeţeană „Duiliu Zamfirescu”, Focșani", "Description": "<div dir=\"ltr\">Strada Mihail Kogălniceanu, Nr. 12, Focșani<br><a href=\"http:\/\/www.bjvrancea.ro\/\" target=\"_blank\">http:\/\/www.bjvrancea.ro\/<\/a><br>Catalog: <a href=\"http:\/\/89.18.30.72:8080\/opac\" target=\"_blank\">http:\/\/89.18.30.72:8080\/opac<\/a><\/div>" }, "geometry": { "type": "Point", "coordinates": [ 27.186998, 45.697765, 0.0 ] } },
{ "type": "Feature", "properties": { "Name": "Biblioteca Județeană „Nicolae Iorga”, Ploiești", "Description": "Ploiesti, str. Subl. Erou Calin Catalin, Nr. 1, Palatul Culturii<a href=\"http:\/\/bni.asesoft.ro\/despre_noi.php\" target=\"_blank\">http:\/\/bni.asesoft.ro\/despre_noi.php<\/a>" }, "geometry": { "type": "Point", "coordinates": [ 26.022043, 44.941975, 0.0 ] } },
{ "type": "Feature", "properties": { "Name": "Biblioteca Judeţeană „V.Voiculescu”, Buzău", "Description": "B-dul Unirii, nr. 140 A<br>&nbsp;<a href=\"http:\/\/www.bjvvbuzau.ro\/\" target=\"_blank\">http:\/\/www.bjvvbuzau.ro\/<\/a>" }, "geometry": { "type": "Point", "coordinates": [ 26.815554, 45.148586, 0.0 ] } },
{ "type": "Feature", "properties": { "Name": "Biblioteca Judeţeană „V.A. Urechia”, Galați", "Description": "<div dir=\"ltr\">Str. Mihai Bravu Nr. 16, Galaţi<br><a href=\"http:\/\/www.bvau.ro\/\" target=\"_blank\">http:\/\/www.bvau.ro\/<\/a><br>Catalog: <a href=\"http:\/\/www.bvau.ro\/tfe\/cautare_avansata.php\" target=\"_blank\">http:\/\/www.bvau.ro\/tfe\/cautare_avansata.php<\/a><\/div>" }, "geometry": { "type": "Point", "coordinates": [ 28.057323, 45.44553, 0.0 ] } },
{ "type": "Feature", "properties": { "Name": "Biblioteca Judeţeană „Panait Istrati”, Brăila", "Description": "<div dir=\"ltr\">Piaţa Poligon nr. 4<br>Calea Călăraşilor nr. 54, Brăila<br>http:\/\/www.bjbraila.ro\/<br>http:\/\/www.bjbraila.ro\/bibliotecabraila\/<\/div>" }, "geometry": { "type": "Point", "coordinates": [ 27.977377, 45.272621, 0.0 ] } },
{ "type": "Feature", "properties": { "Name": "Biblioteca Judeţeană „Ioan N. Roman”, Constanţa", "Description": "Strada Mircea cel Bătrân, 104 A, Constanța, cod 900592 <a href=\"http:\/\/www.biblioteca.ct.ro\/\" target=\"_blank\">http:\/\/www.biblioteca.ct.ro\/<\/a>" }, "geometry": { "type": "Point", "coordinates": [ 28.653532, 44.178932, 0.0 ] } },
{ "type": "Feature", "properties": { "Name": "Biblioteca Metropolitană București", "Description": "<div><font face=\"arial\" size=\"2\">Str. Tache Ionescu 4, Sector 1, 010354, Bucureşti<\/font><\/div><font face=\"arial\" size=\"2\" style=\"font-family:arial;font-size:10pt\">http:\/\/www.bibmet.ro\/<\/font><div dir=\"ltr\" style=\"font-family:arial;font-size:10pt\"><\/div><div style=\"font-family:arial;font-size:10pt\"><font face=\"arial\" size=\"2\" style=\"font-family:arial;font-size:10pt\">Catalog:&nbsp;<\/font><font face=\"arial\" size=\"2\">http:\/\/aleph20.bmms.ro:8991\/F<\/font><\/div>" }, "geometry": { "type": "Point", "coordinates": [ 26.09725, 44.444069, 0.0 ] } },
{ "type": "Feature", "properties": { "Name": "Biblioteca Județeană „I.A.Bassarabescu”, Giurgiu", "Description": "Sos. Bucuresti Nr. 53 <a href=\"http:\/\/www.bjgiurgiu.ro\/\" target=\"_blank\">http:\/\/www.bjgiurgiu.ro\/<\/a>" }, "geometry": { "type": "Point", "coordinates": [ 25.972099, 43.912937, 0.0 ] } },
{ "type": "Feature", "properties": { "Name": "Biblioteca Județeană „N. M. Spatarul”, Vaslui", "Description": "Str. Piaţa Independenţei, nr.1 - Muzeul. Str. Hagi Chiriac, Nr. 2&nbsp;<div>http:\/\/www.bjvaslui.ro\/<div dir=\"ltr\" style=\"font-family:arial;font-size:10pt\">Catalog: <a href=\"http:\/\/bibliophil.bjvaslui.ro\/\" target=\"_blank\">http:\/\/bibliophil.bjvaslui.ro\/<\/a><\/div><\/div>" }, "geometry": { "type": "Point", "coordinates": [ 27.730827, 46.638798, 0.0 ] } },
{ "type": "Feature", "properties": { "Name": "Biblioteca Județeană „Gheorghe Asachi”, Iași", "Description": "Galeriile Comerciale \"Ștefan cel Mare și Sfânt\", Bd. Ștefan cel Mare și Sfânt nr. 10, Iași <a href=\"http:\/\/www.bjiasi.ro\/\" target=\"_blank\">http:\/\/www.bjiasi.ro\/<\/a>" }, "geometry": { "type": "Point", "coordinates": [ 27.581453, 47.163002, 0.0 ] } },
{ "type": "Feature", "properties": { "Name": "Biblioteca Judeţeană „I.G.Sbiera”, Suceava", "Description": "<div dir=\"ltr\">Str. Mitropoliei nr. 4, Suceava - 720035<br><a href=\"http:\/\/www.biblioteca.suceava.ro\/\" target=\"_blank\">http:\/\/www.biblioteca.suceava.ro\/<\/a><\/div>" }, "geometry": { "type": "Point", "coordinates": [ 26.259521, 47.642002, 0.0 ] } },
{ "type": "Feature", "properties": { "Name": "Biblioteca Județeană Mureș", "Description": "540052 Târgu-Mureş, str. G.Enescu nr. 2, jud. Mureş, ROMÂNIA <a href=\"http:\/\/www.bjmures.ro\/\" target=\"_blank\">http:\/\/www.bjmures.ro\/<\/a> Catalog: <a href=\"http:\/\/portal.bjm.qulto.ro\/\" target=\"_blank\">http:\/\/portal.bjm.qulto.ro\/<\/a>" }, "geometry": { "type": "Point", "coordinates": [ 24.558155, 46.543262, 0.0 ] } },
{ "type": "Feature", "properties": { "Name": "Biblioteca Județeană „G.T.Kirileanu”, Piatra Neamț", "Description": "<div dir=\"ltr\" style=\"font-family:arial;font-size:10pt\">Bd. Republicii, 15, Piatra Neamt, Neamt, 610005, România<\/div><div dir=\"ltr\"><font face=\"arial\" size=\"2\"><a href=\"http:\/\/www.bibgtkneamt.ro\/\" target=\"_blank\">http:\/\/www.bibgtkneamt.ro\/<\/a><\/font><\/div><div dir=\"ltr\">Catalog: <a href=\"http:\/\/bibgtkneamt.ebibliophil.ro\/ro\" target=\"_blank\">http:\/\/bibgtkneamt.ebibliophil.ro\/ro&nbsp;<\/a><\/div>" }, "geometry": { "type": "Point", "coordinates": [ 26.364252, 46.929329, 0.0 ] } },
{ "type": "Feature", "properties": { "Name": "Biblioteca Judeţeană „Mihai Eminescu”, Botoșani", "Description": "<div dir=\"ltr\" style=\"font-family:arial;font-size:10pt\">Calea Națională nr. 64<br>Botoșani, 710028, Romania<\/div><div dir=\"ltr\"><font face=\"arial\" size=\"2\"><a href=\"http:\/\/www.bibliotecabotosani.ro\/\" target=\"_blank\">http:\/\/www.bibliotecabotosani.ro\/<\/a><br><a href=\"https:\/\/www.facebook.com\/bjmebt\" target=\"_blank\">https:\/\/www.facebook.com\/bjmebt<\/a><\/font><br>Catalog: http:\/\/188.27.236.51\/Menu3\/Catalog.aspx<\/div>" }, "geometry": { "type": "Point", "coordinates": [ 26.665236, 47.745541, 0.0 ] } },
{ "type": "Feature", "properties": { "Name": "Biblioteca Judeţenă „Alexandru şi Aristia Aman”, Dolj", "Description": "<div dir=\"ltr\">Str. M. Kogălniceanu nr. 9, Craiova<br><a href=\"http:\/\/www.aman.ro\/\" target=\"_blank\">http:\/\/www.aman.ro\/<\/a><br>Catalog: <a href=\"http:\/\/82.77.173.185:8080\/opac\/advancedsearch\" target=\"_blank\">http:\/\/82.77.173.185:8080\/opac\/advancedsearch<\/a><\/div>" }, "geometry": { "type": "Point", "coordinates": [ 23.796478, 44.315968, 0.0 ] } },
{ "type": "Feature", "properties": { "Name": "Biblioteca Judeţeană I.G. Bibicescu, Mehedinţi", "Description": "<b>Compartimentul Financiar, Resurse Umane, Administrativ<\/b><br><b>Adresa<\/b>:<i>Str.<\/i> Ștefan Odobleja nr.59,<div dir=\"ltr\"><i>Loc<\/i>. Drobeta Turnu-Severin, Mehedinți<br><i>cod poștal<\/i>: 220145<br><b>Contact<\/b>: <i>tel<\/i>.<span style=\"font-style:italic\">0252\/315682<br>e-mail: <\/span><span style=\"font-style:italic\"><a target=\"_blank\">bibjudmh@yahoo.com<\/a><\/span><br><b>Site<\/b>: <a href=\"http:\/\/www.bjmehedinti.ro\/\" target=\"_blank\">http:\/\/www.bjmehedinti.ro\/<\/a><br><b>Blog<\/b>:<a href=\"http:\/\/bibjudmehedinti.blogspot.ro\/\" target=\"_blank\"> http:\/\/bibjudmehedinti.blogspot.ro\/<\/a><br><br><\/div>" }, "geometry": { "type": "Point", "coordinates": [ 22.661089, 44.625511, 0.0 ] } },
{ "type": "Feature", "properties": { "Name": "Biblioteca Județeană „Christian Tell”, Gorj", "Description": "<div dir=\"ltr\">Calea Eroilor 23, Târgu Jiu 210163, Romania<br><a href=\"http:\/\/www.bibliotell.ro\/\" target=\"_blank\">http:\/\/www.bibliotell.ro\/<\/a><\/div>" }, "geometry": { "type": "Point", "coordinates": [ 23.273514, 45.03894, 0.0 ] } },
{ "type": "Feature", "properties": { "Name": "Biblioteca Judeţeană Antim Ivireanul", "Description": "<div dir=\"ltr\">Biblioteca Județeană „Antim Ivireanul”, Vâlcea<br>Str. Carol I, nr. 26, Râmnicu Vâlcea, 240591<br><a target=\"_blank\">www.bjai.ro<\/a><\/div>" }, "geometry": { "type": "Point", "coordinates": [ 24.362534, 45.106583, 0.0 ] } },
{ "type": "Feature", "properties": { "Name": "Biblioteca Judeteana „Ion Minulescu”, Olt", "Description": "<div dir=\"ltr\">B-dul A.I. Cuza, nr. 3B, Slatina, judetul Olt<br><a href=\"http:\/\/www.bibliotecaslatina.ro\/\" target=\"_blank\">http:\/\/www.bibliotecaslatina.ro\/<\/a><\/div>" }, "geometry": { "type": "Point", "coordinates": [ 24.3654, 44.428783, 0.0 ] } },
{ "type": "Feature", "properties": { "Name": "Biblioteca Județeană „Ion Heliade Rădulescu”, Dâmbovița", "Description": "<div dir=\"ltr\">Strada Stelea, Nr. 2, Cod 130018, Târgovişte, Dâmboviţa<br>http:\/\/www.bjdb.ro\/<\/div>" }, "geometry": { "type": "Point", "coordinates": [ 25.461271, 44.928482, 0.0 ] } },
{ "type": "Feature", "properties": { "Name": "Biblioteca Județeană „Marin Preda”, Alexandria", "Description": "<div><font face=\"arial\" size=\"2\">Str. Bucureşti, bl T4, 140101,&nbsp;<\/font><span style=\"font-family:arial;font-size:small\">Alexandria<br><\/span><a href=\"http:\/\/www.bjmarinpreda.ro\/\" style=\"font-family:arial;font-size:10pt\" target=\"_blank\">http:\/\/www.bjmarinpreda.ro\/<\/a><\/div>" }, "geometry": { "type": "Point", "coordinates": [ 25.340939, 43.970276, 0.0 ] } },
{ "type": "Feature", "properties": { "Name": "Biblioteca Județeană „Octavian Goga”, Cluj", "Description": "<div dir=\"ltr\">Calea Dorobanţilor, Nr. 104, Cluj-Napoca, 400691<br><a target=\"_blank\">www.bjc.ro<\/a><br>Catalog: <a href=\"http:\/\/catalog.bjc.ro\/qulto\/\" target=\"_blank\">http:\/\/catalog.bjc.ro\/qulto\/<\/a><\/div>" }, "geometry": { "type": "Point", "coordinates": [ 23.61508, 46.776562, 0.0 ] } },
{ "type": "Feature", "properties": { "Name": "Biblioteca Județeană Timiș", "Description": "<div dir=\"ltr\">Piaţa Libertăţii nr. 3<br><a href=\"http:\/\/dev.bjt.ro\/\" target=\"_blank\">http:\/\/dev.bjt.ro\/<\/a><br>Catalog: <a href=\"http:\/\/tinread.bjt.ro\/opac\" target=\"_blank\">http:\/\/tinread.bjt.ro\/opac<\/a><\/div>" }, "geometry": { "type": "Point", "coordinates": [ 21.228079, 45.755367, 0.0 ] } },
{ "type": "Feature", "properties": { "Name": "Biblioteca Județeană „Paul Iorgovici”, Reșița", "Description": "Paul Iorgovici nr. 50 <a href=\"http:\/\/bjpiresita.blogspot.ro\/\" target=\"_blank\">http:\/\/bjpiresita.blogspot.ro\/<\/a><img src=\"http:\/\/1.bp.blogspot.com\/_XnAWWUh94ac\/SsMPJwZEwaI\/AAAAAAAAAPM\/mGfhHbVmil0\/S240\/poza+centru.jpg\">" }, "geometry": { "type": "Point", "coordinates": [ 21.908375, 45.294235, 0.0 ] } },
{ "type": "Feature", "properties": { "Name": "Biblioteca Județeană „Ovid Densusianu”, Hunedoara-Deva", "Description": "<div dir=\"ltr\">Bulevardul 1 Decembrie nr. 26, Deva, Judetul Hunedoara<br><a href=\"http:\/\/www.bibliotecadeva.ro\" target=\"_blank\">http:\/\/www.bibliotecadeva.ro<\/a>\/<br>Catalog: h<a target=\"_blank\">ttp:\/\/85.186.56.30:8080\/opac<\/a><\/div>" }, "geometry": { "type": "Point", "coordinates": [ 22.900036, 45.883846, 0.0 ] } },
{ "type": "Feature", "properties": { "Name": "Biblioteca Judeţeană „Gheorghe Șincai”, Bihor", "Description": "<div dir=\"ltr\">Str. Armatei Române nr. 1\/A, Oradea<br><a href=\"http:\/\/www.bibliobihor.ro\/\" target=\"_blank\">http:\/\/www.bibliobihor.ro\/<\/a><\/div><div dir=\"ltr\"><a href=\"http:\/\/www.bibliotecibihorene.blogspot.ro\/\" target=\"_blank\">http:\/\/www.bibliotecibihorene.blogspot.ro\/<\/a><\/div><div dir=\"ltr\"><a href=\"http:\/\/sectia-copii-bjbihor.blogspot.ro\/\" target=\"_blank\">http:\/\/sectia-copii-bjbihor.blogspot.ro\/<\/a><\/div><div dir=\"ltr\"><a href=\"https:\/\/www.facebook.com\/bibliobihor?fref=ts\" target=\"_blank\">https:\/\/www.facebook.com\/bibliobihor?fref=ts<\/a><\/div><div dir=\"ltr\"><span style=\"font-size:10pt\">Catalog: <\/span><a href=\"http:\/\/www.bibliobihor.ro:8080\/tinread\/tinread.jsp\" style=\"font-size:10pt\" target=\"_blank\">http:\/\/www.bibliobihor.ro:8080\/tinread\/tinread.jsp<\/a><\/div>" }, "geometry": { "type": "Point", "coordinates": [ 21.922682, 47.049301, 0.0 ] } },
{ "type": "Feature", "properties": { "Name": "Biblioteca Județeană „I.S.Bădescu”, Sălaj", "Description": "<div dir=\"ltr\">P-ţa Iuliu Maniu, Nr. 13, 450016, Zalău, Sălaj<br><a href=\"http:\/\/www.bjs.ro\/\" target=\"_blank\">http:\/\/www.bjs.ro\/<\/a><br>Catalog: <a href=\"http:\/\/94.53.210.163:8084\/opac\" target=\"_blank\">http:\/\/94.53.210.163:8084\/opac<\/a><\/div>" }, "geometry": { "type": "Point", "coordinates": [ 23.055967, 47.178974, 0.0 ] } },
{ "type": "Feature", "properties": { "Name": "Biblioteca Județeană Satu Mare", "Description": "<div dir=\"ltr\">Strada Decebal, nr. 2, 440006, Satu Mare<br><a href=\"http:\/\/www.bibliotecasatumare.ro\" target=\"_blank\">http:\/\/www.bibliotecasatumare.ro<\/a><br>Catalog: <a href=\"http:\/\/194.88.239.92:8081\/opac\" target=\"_blank\">http:\/\/194.88.239.92:8081\/opac<\/a><\/div>" }, "geometry": { "type": "Point", "coordinates": [ 22.875231, 47.789661, 0.0 ] } },
{ "type": "Feature", "properties": { "Name": "Biblioteca Județeană „Petre Dulfu”, Baia Mare", "Description": "B-dul Independentei Nr. 4B, Baia Mare <a href=\"http:\/\/www.bibliotecamm.ro\/\" target=\"_blank\">http:\/\/www.bibliotecamm.ro\/<\/a>" }, "geometry": { "type": "Point", "coordinates": [ 23.569057, 47.659256, 0.0 ] } },
{ "type": "Feature", "properties": { "Name": "Biblioteca Județeană „Alexandru Odobescu”, Călărași", "Description": "Adresa Str. Bucureşti, Nr. 102, 910064, Călărași<img src=\"http:\/\/www.noapteabibliotecilor.ro\/wp-content\/uploads\/2011\/09\/calarasi_mic.jpg\">" }, "geometry": { "type": "Point", "coordinates": [ 27.332729, 44.192017, 0.0 ] } },
{ "type": "Feature", "properties": { "Name": "Biblioteca Județeană „Ștefan Bănulescu”, Ialomița", "Description": "B-dul Matei Basarab, nr. 26, Slobozia, Ialomița <a href=\"http:\/\/www.bji.ro\/\" target=\"_blank\">http:\/\/www.bji.ro\/<\/a>" }, "geometry": { "type": "Point", "coordinates": [ 27.357809, 44.56234, 0.0 ] } },
{ "type": "Feature", "properties": { "Name": "Biblioteca Județeană „Panait Cerna”, Tulcea", "Description": "Str. Isaccei nr.16A, 820165, Tulcea <a href=\"http:\/\/www.tulcealibrary.ro\" target=\"_blank\">www.tulcealibrary.ro<\/a>" }, "geometry": { "type": "Point", "coordinates": [ 28.794222, 45.179714, 0.0 ] } },
{ "type": "Feature", "properties": { "Name": "Biblioteca municipală „Radu Rosetti”, Onești", "Description": "Bulevardul Oituz nr. 13A, Onești <a href=\"http:\/\/biblioteca.onesti.ro\/\" target=\"_blank\">http:\/\/biblioteca.onesti.ro\/<\/a> <a href=\"http:\/\/biblionesti.blogspot.ro\/\" target=\"_blank\">http:\/\/biblionesti.blogspot.ro\/<\/a>" }, "geometry": { "type": "Point", "coordinates": [ 26.760202, 46.248722, 0.0 ] } },
{ "type": "Feature", "properties": { "Name": "Biblioteca Orășenească Comănești, Bacău", "Description": "<div dir=\"ltr\">Str. Republicii, nr. 66, Comăneşti, 605200<br><a href=\"https:\/\/www.facebook.com\/biblioteca.comanesti\" target=\"_blank\">https:\/\/www.facebook.com\/biblioteca.comanesti<\/a><\/div>" }, "geometry": { "type": "Point", "coordinates": [ 26.440865, 46.42168, 0.0 ] } },
{ "type": "Feature", "properties": { "Name": "Biblioteca Orăşenească „George Bacovia”, Buhuşi", "Description": "Strada Republicii, nr.18, Buhuși, Bacau <a href=\"https:\/\/www.facebook.com\/bibliotecabuhusi.biblioteca\" target=\"_blank\">https:\/\/www.facebook.com\/bibliotecabuhusi.biblioteca<\/a>" }, "geometry": { "type": "Point", "coordinates": [ 26.702959, 46.71912, 0.0 ] } },
{ "type": "Feature", "properties": { "Name": "Biblioteca Națională a României", "Description": "<div><font face=\"arial\" size=\"2\">Bucureşti, Bd.Unirii nr.22, sector 3, 030833<\/font><\/div><font face=\"arial\" size=\"2\" style=\"font-family:arial;font-size:10pt\"><a href=\"http:\/\/www.bibnat.ro\/\" target=\"_blank\">http:\/\/www.bibnat.ro\/<\/a><\/font><div style=\"font-family:arial;font-size:10pt\"><font face=\"arial\" size=\"2\">Catalog:&nbsp;<a href=\"http:\/\/alephnew.bibnat.ro:8991\/F\" target=\"_blank\">http:\/\/alephnew.bibnat.ro:8991\/F<\/a><\/font><\/div>" }, "geometry": { "type": "Point", "coordinates": [ 26.110188, 44.425533, 0.0 ] } },
{ "type": "Feature", "properties": { "Name": "Biblioteca Municipală „Dr.C.I. Istrati”, Câmpina", "Description": "<div dir=\"ltr\">105600, Bulevardul Culturii, nr.39<br><a href=\"http:\/\/www.bmcampina.ro\/\" target=\"_blank\">http:\/\/www.bmcampina.ro\/<\/a><br><a href=\"https:\/\/www.facebook.com\/bibliotecamunicipala\" target=\"_blank\">https:\/\/www.facebook.com\/bibliotecamunicipala<\/a><\/div>" }, "geometry": { "type": "Point", "coordinates": [ 25.731346, 45.121269, 0.0 ] } },
{ "type": "Feature", "properties": { "Name": "Biblioteca Universităţii \"Dunărea de Jos\" din Galaţi", "Description": "Str. Domnească nr. 47, 80008 Galaţi <a href=\"http:\/\/www.lib.ugal.ro\" target=\"_blank\">http:\/\/www.lib.ugal.ro<\/a><br><a href=\"http:\/\/www.lib.ugal.ro\" target=\"_blank\"> <\/a><a href=\"http:\/\/www.facebook.com\/biblioteca.udjgalati\" target=\"_blank\">http:\/\/www.facebook.com\/biblioteca.udjgalati<\/a>" }, "geometry": { "type": "Point", "coordinates": [ 28.056293, 45.438553, 0.0 ] } },
{ "type": "Feature", "properties": { "Name": "Filiala de ştiinţe economice şi umaniste, Biblioteca Universităţii \"Dunărea de Jos\" din Galaţi", "Description": "<div dir=\"ltr\">Str. Gării nr. 63-65, 800003 Galaţi<br><a href=\"http:\/\/www.lib.ugal.ro\/Filiale.html\" target=\"_blank\">http:www.lib.ugal.ro<\/a><\/div>" }, "geometry": { "type": "Point", "coordinates": [ 28.051119, 45.44334, 0.0 ] } },
{ "type": "Feature", "properties": { "Name": "Filiala Facultăţii de Litere, Biblioteca Universităţii \"Dunărea de Jos\" din Galaţi", "Description": "Str. Domnească nr. 111, 800201 Galaţi<br><a href=\"http:\/\/www.lib.ugal.ro\/Filiale.html\" target=\"_blank\">http:\/\/www.lib.ugal.ro<\/a><br>" }, "geometry": { "type": "Point", "coordinates": [ 28.053318, 45.446819, 0.0 ] } },
{ "type": "Feature", "properties": { "Name": "Filiala Facultăţii de Medicină şi Farmacie, Biblioteca Universităţii \"Dunărea de Jos\" din Galaţi", "Description": "str. Oţelarilor nr. 25, 800649 galaţi<br><a href=\"http:\/\/www.lib.ugal.ro\/Filiale.html\" target=\"_blank\">http:\/\/www.lib.ugal.ro<\/a><br>" }, "geometry": { "type": "Point", "coordinates": [ 28.015188, 45.410488, 0.0 ] } },
{ "type": "Feature", "properties": { "Name": "Filiala Facultăţii de Inginerie din Brăila, Biblioteca Universităţii \"Dunărea de Jos\" din Galaţi", "Description": "Calea Călăraşilor nr. 29, 810017 Brăila<br><a href=\"http:\/\/www.lib.ugal.ro\/Filiale.html\" target=\"_blank\">http:\/\/www.lib.ugal.ro<\/a><br>" }, "geometry": { "type": "Point", "coordinates": [ 27.973278, 45.267208, 0.0 ] } },
{ "type": "Feature", "properties": { "Name": "Biblioteca Municipală „George Radu Melidon”, Roman", "Description": "<div dir=\"ltr\">Bulevardul Roman Muşat 19, 611002, Roman<\/div>" }, "geometry": { "type": "Point", "coordinates": [ 26.928541, 46.920929, 0.0 ] } },
{ "type": "Feature", "properties": { "Name": "Biblioteca Orășenească Borșa", "Description": "<div dir=\"ltr\">Str. Floare de Colţ nr. 1A , et. II, Borşa<br><a href=\"http:\/\/www.biblioteca-oraseneasca-borsa.blogspot.ro\" target=\"_blank\">http:\/\/www.biblioteca-oraseneasca-borsa.blogspot.ro<\/a><br><br>&nbsp;<\/div>" }, "geometry": { "type": "Point", "coordinates": [ 24.664616, 47.653908, 0.0 ] } },
{ "type": "Feature", "properties": { "Name": "Biblioteca Orăşenească Luduş", "Description": "<div dir=\"ltr\">Str.1 Decembrie 1918, nr.19, Luduș, Mureș, 545200<br><a href=\"http:\/\/bibliotecaoraseneascaludus.blogspot.ro\/\" target=\"_blank\">http:\/\/bibliotecaoraseneascaludus.blogspot.ro\/<\/a><\/div>" }, "geometry": { "type": "Point", "coordinates": [ 24.095631, 46.47575, 0.0 ] } },
{ "type": "Feature", "properties": { "Name": "Biblioteca Orășenească Hârlău", "Description": "<div dir=\"ltr\">Str.Stefan cel Mare nr. 19, Hârlau, Iași, 705100<br><a href=\"http:\/\/bibliotecaharlau.wordpress.com\" target=\"_blank\">http:\/\/bibliotecaharlau.wordpress.com<\/a><br>https:\/\/www.facebook.com\/pages\/Biblioteca-Oraseneasca-harlau<\/div>" }, "geometry": { "type": "Point", "coordinates": [ 26.905924, 47.426323, 0.0 ] } },
{ "type": "Feature", "properties": { "Name": "Filiala Miorița, Biblioteca Județeană Bacău", "Description": "În incinta Școlii Dimitrie Leonida<br>" }, "geometry": { "type": "Point", "coordinates": [ 26.888712, 46.565628, 0.0 ] } },
{ "type": "Feature", "properties": { "Name": "Filiala Ștefan cel Mare, Biblioteca Județeană Bacău", "Description": "<br>" }, "geometry": { "type": "Point", "coordinates": [ 26.913769, 46.578266, 0.0 ] } },
{ "type": "Feature", "properties": { "Name": "Filiala Bicaz, Biblioteca Județeană Bacău", "Description": "<br>" }, "geometry": { "type": "Point", "coordinates": [ 26.921846, 46.532261, 0.0 ] } },
{ "type": "Feature", "properties": { "Name": "Filiala Kogalniceanu, Biblioteca Judeteana Cluj", "Description": "" }, "geometry": { "type": "Point", "coordinates": [ 23.593557, 46.767963, 0.0 ] } },
{ "type": "Feature", "properties": { "Name": "Filiala Zorilor, Biblioteca Judeteana Cluj", "Description": "" }, "geometry": { "type": "Point", "coordinates": [ 23.595695, 46.755852, 0.0 ] } },
{ "type": "Feature", "properties": { "Name": "Filiala Traian Brad, Biblioteca Judeteana Cluj", "Description": "" }, "geometry": { "type": "Point", "coordinates": [ 23.556934, 46.755981, 0.0 ] } },
{ "type": "Feature", "properties": { "Name": "Filiala Radu Negru Biblioteca Judeteana Braila", "Description": "" }, "geometry": { "type": "Point", "coordinates": [ 27.939457, 45.242428, 0.0 ] } },
{ "type": "Feature", "properties": { "Name": "Filiala Chercea Biblioteca Judeteana Braila", "Description": "" }, "geometry": { "type": "Point", "coordinates": [ 27.947342, 45.282562, 0.0 ] } },
{ "type": "Feature", "properties": { "Name": "Filiala Brailita Biblioteca Judeteana Braila", "Description": "" }, "geometry": { "type": "Point", "coordinates": [ 27.977602, 45.293777, 0.0 ] } },
{ "type": "Feature", "properties": { "Name": "Filiala nr.1, Biblioteca Județeană Buzău", "Description": "" }, "geometry": { "type": "Point", "coordinates": [ 26.788631, 45.163231, 0.0 ] } },
{ "type": "Feature", "properties": { "Name": "Filiala nr. 2, Biblioteca Județeană Buzău", "Description": "" }, "geometry": { "type": "Point", "coordinates": [ 26.793734, 45.153641, 0.0 ] } },
{ "type": "Feature", "properties": { "Name": "Filiala Panait Nicolae (Corp B), Biblioteca Județeană Buzău", "Description": "" }, "geometry": { "type": "Point", "coordinates": [ 26.818863, 45.140823, 0.0 ] } },
{ "type": "Feature", "properties": { "Name": "Filala Dionisie Romano, Biblioteca Județeană Buzău", "Description": "" }, "geometry": { "type": "Point", "coordinates": [ 26.82202, 45.15414, 0.0 ] } },
{ "type": "Feature", "properties": { "Name": "Filiala de carte românească „Basarabia” - Biblioteca Județeană „V. Voiculescu”, Buzău ", "Description": "" }, "geometry": { "type": "Point", "coordinates": [ 28.301876, 48.153927, 0.0 ] } },
{ "type": "Feature", "properties": { "Name": "Biblioteca Ateneu Tătărași, Biblioteca Județeană Iași", "Description": "<div dir=\"ltr\">Str. Pictorului nr. 14, Iași, 700325<br><a href=\"http:\/\/bibliotecaateneu.blogspot.ro\" target=\"_blank\">http:\/\/bibliotecaateneu.blogspot.ro<\/a><\/div>" }, "geometry": { "type": "Point", "coordinates": [ 27.60668, 47.161919, 0.0 ] } },
{ "type": "Feature", "properties": { "Name": "Filiala Hipodrom - Biblioteca Judeteana ASTRA Sibiu", "Description": "Str. Rahovei, Nr. 14, Ap. 1, Sibiu, Romania<br>" }, "geometry": { "type": "Point", "coordinates": [ 24.156994, 45.777153, 0.0 ] } },
{ "type": "Feature", "properties": { "Name": "Filiala Valea Aurie, Biblioteca Judeteana ASTRA Sibiu", "Description": "Str. Ludos, Nr. 8, Bl. 31<br>" }, "geometry": { "type": "Point", "coordinates": [ 24.126762, 45.768276, 0.0 ] } },
{ "type": "Feature", "properties": { "Name": "Filiala Vasile Aaron, Biblioteca Judeteana ASTRA Sibiu", "Description": "Str. Semaforului, Bl. 22, Sibiu, Romania<br>" }, "geometry": { "type": "Point", "coordinates": [ 24.167217, 45.781876, 0.0 ] } },
{ "type": "Feature", "properties": { "Name": "Filiala Balea, Biblioteca Judeteana ASTRA Sibiu", "Description": "Str, Balea, Bl. 9, Sibiu, Romaania<br>" }, "geometry": { "type": "Point", "coordinates": [ 24.160433, 45.794079, 0.0 ] } },
{ "type": "Feature", "properties": { "Name": "Filiala Bibliosan, Biblioteca Judeteana Cluj", "Description": "" }, "geometry": { "type": "Point", "coordinates": [ 23.582432, 46.754761, 0.0 ] } },
{ "type": "Feature", "properties": { "Name": "Biblioteca Transilvania, Biblioteca Municipala B. P. Hasdeu (Biblioteca Judeteana Cluj)", "Description": "Chișinău, Moldova<br>" }, "geometry": { "type": "Point", "coordinates": [ 28.890503, 47.046528, 0.0 ] } },
{ "type": "Feature", "properties": { "Name": "Secția de Artă „Iosif Keber”, Biblioteca Județeană", "Description": "Strada 11 Iunie 1848, Nr. 67<br>" }, "geometry": { "type": "Point", "coordinates": [ 23.275274, 45.047176, 0.0 ] } },
{ "type": "Feature", "properties": { "Name": "Filiala pentru copii, Biblioteca Județeană", "Description": "Bulevardul Republicii, Nr 13A<br>" }, "geometry": { "type": "Point", "coordinates": [ 23.277222, 45.035416, 0.0 ] } },
{ "type": "Feature", "properties": { "Name": "Filiala Victoriei, Biblioteca Județeană", "Description": "Str. Victoriei, Nr. 158<br>" }, "geometry": { "type": "Point", "coordinates": [ 23.268169, 45.024563, 0.0 ] } },
{ "type": "Feature", "properties": { "Name": "Biblioteca Municipală „Stroe S. Belloescu”, Bârlad", "Description": "<div dir=\"ltr\">Bulevardul Republicii 149, Bârlad 731136<\/div>" }, "geometry": { "type": "Point", "coordinates": [ 27.669165, 46.224171, 0.0 ] } },
{ "type": "Feature", "properties": { "Name": "Filiala de carte romaneasca, Biblioteca Raionala M Sadoveanu Straseni - Biblioteca Judeteana Braila", "Description": "" }, "geometry": { "type": "Point", "coordinates": [ 28.615576, 47.147099, 0.0 ] } },
{ "type": "Feature", "properties": { "Name": "Biblioteca Comunala Lemnia, CV", "Description": "<div dir=\"ltr\">Lemnia, Nr.159, Covasna<br><br><br><\/div>" }, "geometry": { "type": "Point", "coordinates": [ 26.266916, 46.046677, 0.0 ] } },
{ "type": "Feature", "properties": { "Name": "Biblioteca Comunala Bretcu, CV", "Description": "<div dir=\"ltr\">str. Garii, nr. 212, Bretcu, CV<br>&nbsp;<\/div>" }, "geometry": { "type": "Point", "coordinates": [ 26.3015, 46.045094, 0.0 ] } },
{ "type": "Feature", "properties": { "Name": "Biblioteca Comunala Kemeny Zsigmond, Sanzieni, CV", "Description": "<div dir=\"ltr\">Str. Principala nr. 337, Sanzieni, CV<br><br><br>&nbsp;<\/div>" }, "geometry": { "type": "Point", "coordinates": [ 26.128935, 46.043671, 0.0 ] } },
{ "type": "Feature", "properties": { "Name": "Biblioteca Comunala Fejer Miklos, Zabala, CV", "Description": "<table border=\"0\" cellpadding=\"0\" cellspacing=\"0\" width=\"350\" style=\"border-collapse:collapse;width:263pt\"><tbody><tr> <td height=\"20\" width=\"350\" style=\"width:263pt\">Str. Principala nr. 483, Zabala<\/td><\/tr><\/tbody><\/table>" }, "geometry": { "type": "Point", "coordinates": [ 26.187399, 45.894073, 0.0 ] } },
{ "type": "Feature", "properties": { "Name": "Filiala nr. 3", "Description": "Cartierul Dambul Pietros<br>" }, "geometry": { "type": "Point", "coordinates": [ 24.555302, 46.529293, 0.0 ] } },
{ "type": "Feature", "properties": { "Name": "Biblioteca Orășenească Covasna, CV", "Description": "<table border=\"0\" cellpadding=\"0\" cellspacing=\"0\" width=\"350\" style=\"border-collapse:collapse;width:263pt\"><tbody><tr> <td height=\"20\" width=\"350\" style=\"width:263pt\">Str. 1 Decembrie 1918 nr. 1, Covasna, CV<br><br><\/td><\/tr><\/tbody><\/table>" }, "geometry": { "type": "Point", "coordinates": [ 26.167656, 45.844921, 0.0 ] } },
{ "type": "Feature", "properties": { "Name": "Filiala nr. 4", "Description": "Filiala nr. 4, strada Trebely nr. 7<br>" }, "geometry": { "type": "Point", "coordinates": [ 24.572975, 46.547859, 0.0 ] } },
{ "type": "Feature", "properties": { "Name": "Biblioteca Teleki-Bolyai", "Description": "<div dir=\"ltr\">Biblioteca Judeteana Mures, Biroul Colectii Speciale. Biblioteca Teleki-Bolyai, strada Bolyai, nr. 17<\/div>" }, "geometry": { "type": "Point", "coordinates": [ 24.565365, 46.542961, 0.0 ] } },
{ "type": "Feature", "properties": { "Name": "Biblioteca Comunala Comandau, CV", "Description": "<table border=\"0\" cellpadding=\"0\" cellspacing=\"0\" width=\"148\" style=\"border-collapse:collapse;width:111pt\"><tbody><tr> <td height=\"20\" width=\"148\" style=\"width:111pt\">Comandau,&nbsp;Nr.63,&nbsp;CV<\/td><\/tr><\/tbody><\/table>" }, "geometry": { "type": "Point", "coordinates": [ 26.273676, 45.759758, 0.0 ] } },
{ "type": "Feature", "properties": { "Name": "Biblioteca Judeteana Mures. Complex Parc", "Description": "<div dir=\"ltr\">Biblioteca Judeteana Mures. Complex Parc. American Corner Targu-Mures. Sectia de Publicatii Periodice. Sectia de Arta. Sala Multimedia, stada Primariei, nr. 2<\/div>" }, "geometry": { "type": "Point", "coordinates": [ 24.556171, 46.543365, 0.0 ] } },
{ "type": "Feature", "properties": { "Name": "Filiala nr. 1, Biblioteca Judeteana Mures", "Description": "<div dir=\"ltr\">Biblioteca Judeteana Mures. Filiala nr. 1, strada Aleea Carpati, nr. 51<\/div>" }, "geometry": { "type": "Point", "coordinates": [ 24.562855, 46.556721, 0.0 ] } },
{ "type": "Feature", "properties": { "Name": "Biblioteca Comunala Sita Buzaului, CV", "Description": "<table border=\"0\" cellpadding=\"0\" cellspacing=\"0\" width=\"350\" style=\"border-collapse:collapse;width:263pt\"><tbody><tr> <td height=\"20\" width=\"350\" style=\"width:263pt\">str. Principala, nr. 274,&nbsp;Sita Buzaului, CV<\/td><\/tr><\/tbody><\/table>" }, "geometry": { "type": "Point", "coordinates": [ 26.071571, 45.655727, 0.0 ] } },
{ "type": "Feature", "properties": { "Name": "Biblioteca Comunala Vama Buzaului, BV", "Description": "<table width=\"350\" border=\"0\" cellspacing=\"0\" cellpadding=\"0\" style=\"width:263pt;border-collapse:collapse\"><tbody><tr> <td width=\"350\" height=\"20\" style=\"width:263pt\">Str. Principala, nr. 425, Vama Buzaului, BV<\/td><\/tr><\/tbody><\/table>" }, "geometry": { "type": "Point", "coordinates": [ 25.9916, 45.59602, 0.0 ] } },
{ "type": "Feature", "properties": { "Name": "Biblioteca Oraseneasca Intorsura Buzaului, CV", "Description": "<table border=\"0\" cellpadding=\"0\" cellspacing=\"0\" width=\"350\" style=\"border-collapse:collapse;width:263pt\"><tbody><tr> <td height=\"20\" width=\"350\" style=\"width:263pt\">Str. Mihai Viteazul, nr. 149,&nbsp;Intorsura Buzaului, CV<\/td><\/tr><\/tbody><\/table>" }, "geometry": { "type": "Point", "coordinates": [ 26.031281, 45.67395, 0.0 ] } },
{ "type": "Feature", "properties": { "Name": "Biblioteca Comunala Barcani, CV", "Description": "<table border=\"0\" cellpadding=\"0\" cellspacing=\"0\" width=\"350\" style=\"border-collapse:collapse;width:263pt\"><tbody><tr> <td height=\"20\" width=\"350\" style=\"width:263pt\">str. Principala, nr. 270, Barcani, CV<\/td><\/tr><\/tbody><\/table>" }, "geometry": { "type": "Point", "coordinates": [ 26.081135, 45.690613, 0.0 ] } },
{ "type": "Feature", "properties": { "Name": "Biblioteca Comunala Ojdula, CV", "Description": "<table border=\"0\" cellpadding=\"0\" cellspacing=\"0\" width=\"148\" style=\"border-collapse:collapse;width:111pt\"><tbody><tr> <td height=\"20\" width=\"148\" style=\"width:111pt\">Ojdula,&nbsp;Nr.179, CV<\/td><\/tr><\/tbody><\/table>" }, "geometry": { "type": "Point", "coordinates": [ 26.255688, 45.987019, 0.0 ] } },
{ "type": "Feature", "properties": { "Name": "Biblioteca Comunala Ghelinta, CV", "Description": "<table border=\"0\" cellpadding=\"0\" cellspacing=\"0\" width=\"208\" style=\"border-collapse:collapse;width:156pt\"><tbody><tr> <td height=\"20\" width=\"208\" style=\"width:156pt\">Ghelinta,&nbsp;str.Principala,&nbsp;nr.738, CV<span style=\"font-size:10pt\">&nbsp;<\/span><span style=\"font-size:10pt\">&nbsp;<\/span><\/td><\/tr><\/tbody><\/table>" }, "geometry": { "type": "Point", "coordinates": [ 26.231241, 45.94281, 0.0 ] } },
{ "type": "Feature", "properties": { "Name": "Biblioteca Universității „Vasile Alecsandri”, Bacău", "Description": "Spiru Haret, Nr. 8, Bacău, 600114<br><a href=\"http:\/\/biblioteca.ub.ro\" target=\"_blank\">http:\/\/biblioteca.ub.ro<\/a><br>" }, "geometry": { "type": "Point", "coordinates": [ 26.913828, 46.555035, 0.0 ] } },
{ "type": "Feature", "properties": { "Name": "Biblioteca Comunala Estelnic, CV", "Description": "<table border=\"0\" cellpadding=\"0\" cellspacing=\"0\" width=\"148\" style=\"border-collapse:collapse;width:111pt\"><tbody><tr> <td height=\"20\" width=\"148\" style=\"width:111pt\">Estelnic, Nr. 175, CV<\/td><\/tr><\/tbody><\/table>" }, "geometry": { "type": "Point", "coordinates": [ 26.211115, 46.095078, 0.0 ] } },
{ "type": "Feature", "properties": { "Name": "Biblioteca Centrală Universitară „Carol I”, București", "Description": "<div dir=\"ltr\">Str. Boteanu nr. 1, sector 1, 010027, Bucureşti<br><a href=\"http:\/\/www.bcub.ro\/\" target=\"_blank\">http:\/\/www.bcub.ro\/<\/a><br>Catalog: <a href=\"http:\/\/cacheprod.bcub.ro\/webopac\/Vubis.csp\" target=\"_blank\">http:\/\/cacheprod.bcub.ro\/webopac\/Vubis.csp<\/a><\/div>" }, "geometry": { "type": "Point", "coordinates": [ 26.097692, 44.439903, 0.0 ] } },
{ "type": "Feature", "properties": { "Name": "Biblioteca Comunala Cernat, CV", "Description": "<table border=\"0\" cellpadding=\"0\" cellspacing=\"0\" width=\"148\" style=\"border-collapse:collapse;width:111pt\"><tbody><tr> <td height=\"20\" width=\"148\" style=\"width:111pt\">Cernat, Nr. 459, CV<\/td><\/tr><\/tbody><\/table>" }, "geometry": { "type": "Point", "coordinates": [ 26.027399, 45.96294, 0.0 ] } },
{ "type": "Feature", "properties": { "Name": "Biblioteca Centrală Universitară „Mihai Eminescu”, Iaşi", "Description": "Strada Păcurari 4, 700511 Iaşi<br><a href=\"http:\/\/www.bcu-iasi.ro\" target=\"_blank\">http:\/\/www.bcu-iasi.ro<\/a><br>Catalog: <a href=\"http:\/\/193.231.13.10:8991\/F\" target=\"_blank\">http:\/\/193.231.13.10:8991\/F<\/a>" }, "geometry": { "type": "Point", "coordinates": [ 27.575668, 47.170238, 0.0 ] } },
{ "type": "Feature", "properties": { "Name": "Biblioteca Comunala Dobirlau, CV", "Description": "<table border=\"0\" cellpadding=\"0\" cellspacing=\"0\" width=\"350\" style=\"border-collapse:collapse;width:263pt\"><tbody><tr> <td height=\"20\" width=\"350\" style=\"width:263pt\">str. Principala, nr. 233, Dobarlau, CV<\/td><\/tr><\/tbody><\/table>" }, "geometry": { "type": "Point", "coordinates": [ 25.885077, 45.73798, 0.0 ] } },
{ "type": "Feature", "properties": { "Name": "Biblioteca Comunala Reci, CV", "Description": "<table border=\"0\" cellpadding=\"0\" cellspacing=\"0\" width=\"350\" style=\"border-collapse:collapse;width:263pt\"><tbody><tr> <td height=\"20\" width=\"350\" style=\"width:263pt\">str. Principala, nr. 268, Reci, CV<\/td><\/tr><\/tbody><\/table><table border=\"0\" cellpadding=\"0\" cellspacing=\"0\" width=\"399\" style=\"border-collapse:collapse;width:299pt\"><tbody><tr><td height=\"20\" width=\"399\" style=\"width:299pt\">&nbsp;<\/td><\/tr><\/tbody><\/table>" }, "geometry": { "type": "Point", "coordinates": [ 25.92811, 45.839211, 0.0 ] } },
{ "type": "Feature", "properties": { "Name": "Biblioteca Comunala Moacsa, CV", "Description": "<table border=\"0\" cellpadding=\"0\" cellspacing=\"0\" width=\"148\" style=\"border-collapse:collapse;width:111pt\"><tbody><tr> <td height=\"20\" width=\"148\" style=\"width:111pt\">Moacsa, Nr. 345<\/td><\/tr><\/tbody><\/table><span style=\"font-size:medium\">Moacsa, CV<\/span><span style=\"font-size:10pt\">&nbsp;<\/span>" }, "geometry": { "type": "Point", "coordinates": [ 25.970102, 45.872005, 0.0 ] } },
{ "type": "Feature", "properties": { "Name": "Biblioteca Comunala Chichis, CV", "Description": "<table border=\"0\" cellpadding=\"0\" cellspacing=\"0\" width=\"148\" style=\"border-collapse:collapse;width:111pt\"><tbody><tr> <td height=\"20\" width=\"148\" style=\"width:111pt\">Chichis, Nr. 57\/A, Chichis, CV<\/td><\/tr><\/tbody><\/table>" }, "geometry": { "type": "Point", "coordinates": [ 25.806894, 45.777184, 0.0 ] } },
{ "type": "Feature", "properties": { "Name": "Biblioteca Comunala Fabian Erno, Ilieni, CV", "Description": "<table border=\"0\" cellpadding=\"0\" cellspacing=\"0\" width=\"208\" style=\"border-collapse:collapse;width:156pt\"><tbody><tr> <td height=\"20\" width=\"208\" style=\"width:156pt\">Ilieni,&nbsp;<table border=\"0\" cellpadding=\"0\" cellspacing=\"0\" width=\"350\" style=\"border-collapse:collapse;width:263pt\"><tbody><tr> <td height=\"20\" width=\"350\" style=\"width:263pt\">Str. Principala nr.92, Ilieni, CV<br>http:\/\/illyefalvikonyvtar.blogspot.ro\/<br><br><\/td><\/tr><\/tbody><\/table><\/td><\/tr><\/tbody><\/table>" }, "geometry": { "type": "Point", "coordinates": [ 25.770975, 45.794834, 0.0 ] } },
{ "type": "Feature", "properties": { "Name": "Biblioteca Comunala Ghidfalau, CV", "Description": "<table border=\"0\" cellpadding=\"0\" cellspacing=\"0\" width=\"208\" style=\"border-collapse:collapse;width:156pt\"><tbody><tr> <td height=\"20\" width=\"208\" style=\"width:156pt\">Ghidfalau,&nbsp;<table border=\"0\" cellpadding=\"0\" cellspacing=\"0\" width=\"350\" style=\"border-collapse:collapse;width:263pt\"><tbody><tr> <td height=\"20\" width=\"350\" style=\"width:263pt\">str. Principala, nr. 108, G<\/td><\/tr><\/tbody><\/table><\/td><\/tr><\/tbody><\/table>" }, "geometry": { "type": "Point", "coordinates": [ 25.842312, 45.904613, 0.0 ] } },
{ "type": "Feature", "properties": { "Name": "Biblioteca Comunala Ghidfalau, CV", "Description": "<table border=\"0\" cellpadding=\"0\" cellspacing=\"0\" width=\"208\" style=\"border-collapse:collapse;width:156pt\"><tbody><tr> <td height=\"20\" width=\"208\" style=\"width:156pt\">Ghidfalau, Principala Nr. 108, Ghidfalau, CV<\/td><\/tr><\/tbody><\/table>" }, "geometry": { "type": "Point", "coordinates": [ 25.842268, 45.904606, 0.0 ] } },
{ "type": "Feature", "properties": { "Name": "Biblioteca Comunala Arcus, CV", "Description": "<table border=\"0\" cellpadding=\"0\" cellspacing=\"0\" width=\"412\" style=\"border-collapse:collapse;width:309pt\"><tbody><tr> <td height=\"20\" width=\"412\" style=\"width:309pt\">Str.Benedek Elek, Nr.36, Arcus, CV<br><br><\/td><\/tr><\/tbody><\/table>" }, "geometry": { "type": "Point", "coordinates": [ 25.777617, 45.900154, 0.0 ] } },
{ "type": "Feature", "properties": { "Name": "Biblioteca Comunala Micfalau, CV", "Description": "<table border=\"0\" cellpadding=\"0\" cellspacing=\"0\" width=\"350\" style=\"border-collapse:collapse;width:263pt\"><tbody><tr> <td height=\"20\" width=\"350\" style=\"width:263pt\">str. Principala, nr. 298, Micfalau, CV<\/td><\/tr><\/tbody><\/table>" }, "geometry": { "type": "Point", "coordinates": [ 25.833374, 46.055855, 0.0 ] } },
{ "type": "Feature", "properties": { "Name": "Biblioteca Oraseneasca Gyulai Liviusz, Baraolt, CV", "Description": "<table border=\"0\" cellpadding=\"0\" cellspacing=\"0\" width=\"412\" style=\"border-collapse:collapse;width:309pt\"><tbody><tr> <td height=\"20\" width=\"412\" style=\"width:309pt\">P-ta Libertatii, Nr.21, Baraolt, CV<br><br><\/td><\/tr><\/tbody><\/table>" }, "geometry": { "type": "Point", "coordinates": [ 25.596222, 46.075169, 0.0 ] } },
{ "type": "Feature", "properties": { "Name": "Biblioteca Comunala Bradut, CV", "Description": "<table border=\"0\" cellpadding=\"0\" cellspacing=\"0\" width=\"328\" style=\"border-collapse:collapse;width:246pt\"><tbody><tr> <td height=\"24\" width=\"328\" style=\"width:246pt\">Str. Scolii Nr.149, Bradut, CV<\/td><\/tr><\/tbody><\/table>" }, "geometry": { "type": "Point", "coordinates": [ 25.610392, 46.130531, 0.0 ] } },
{ "type": "Feature", "properties": { "Name": "Biblioteca Comunala Apata, BV", "Description": "<table border=\"0\" cellpadding=\"0\" cellspacing=\"0\" width=\"328\" style=\"border-collapse:collapse;width:246pt\"><tbody><tr> <td height=\"24\" width=\"328\" style=\"width:246pt\">Strada Mare nr. 342, Apata, BV<\/td><\/tr><\/tbody><\/table>" }, "geometry": { "type": "Point", "coordinates": [ 25.531111, 45.952496, 0.0 ] } },
{ "type": "Feature", "properties": { "Name": "Biblioteca Comunala Belin, CV", "Description": "<table border=\"0\" cellpadding=\"0\" cellspacing=\"0\" width=\"412\" style=\"border-collapse:collapse;width:309pt\"><tbody><tr> <td height=\"20\" width=\"412\" style=\"width:309pt\">Str. Principala, Nr.359, Belin, CV<\/td><\/tr><\/tbody><\/table>" }, "geometry": { "type": "Point", "coordinates": [ 25.568903, 45.932194, 0.0 ] } },
{ "type": "Feature", "properties": { "Name": "Biblioteca Comunala Aita Mare, CV", "Description": "<table border=\"0\" cellpadding=\"0\" cellspacing=\"0\" width=\"350\" style=\"border-collapse:collapse;width:263pt\"><tbody><tr> <td height=\"20\" width=\"350\" style=\"width:263pt\">str. Principala, nr. 206, Aita Mare, CV<\/td><\/tr><\/tbody><\/table>" }, "geometry": { "type": "Point", "coordinates": [ 25.559177, 45.965488, 0.0 ] } },
{ "type": "Feature", "properties": { "Name": "Biblioteca Comunala Racos, BV", "Description": "<table border=\"0\" cellpadding=\"0\" cellspacing=\"0\" width=\"328\" style=\"border-collapse:collapse;width:246pt\"><tbody><tr> <td height=\"24\" width=\"328\" style=\"width:246pt\">Strada De Jos nr. 19, Racos, BV<\/td><\/tr><\/tbody><\/table>" }, "geometry": { "type": "Point", "coordinates": [ 25.402374, 46.025024, 0.0 ] } },
{ "type": "Feature", "properties": { "Name": "Biblioteca Comunala Homorod, BV", "Description": "<table border=\"0\" cellpadding=\"0\" cellspacing=\"0\" width=\"350\" style=\"border-collapse:collapse;width:263pt\"><tbody><tr> <td height=\"20\" width=\"350\" style=\"width:263pt\">Str. Principala, nr. 403, Homorod, BV<\/td><\/tr><\/tbody><\/table>" }, "geometry": { "type": "Point", "coordinates": [ 25.278999, 46.041241, 0.0 ] } },
{ "type": "Feature", "properties": { "Name": "Biblioteca oraseneasca Rupea, BV", "Description": "<table border=\"0\" cellpadding=\"0\" cellspacing=\"0\" width=\"328\" style=\"border-collapse:collapse;width:246pt\"><tbody><tr> <td height=\"24\" width=\"328\" style=\"width:246pt\">Strada Republicii nr. 108, Rupea, BV<\/td><\/tr><\/tbody><\/table>" }, "geometry": { "type": "Point", "coordinates": [ 25.222273, 46.038719, 0.0 ] } },
{ "type": "Feature", "properties": { "Name": "Biblioteca Comunala Hoghiz, BV", "Description": "<table border=\"0\" cellpadding=\"0\" cellspacing=\"0\" width=\"412\" style=\"border-collapse:collapse;width:309pt\"><tbody><tr> <td height=\"20\" width=\"412\" style=\"width:309pt\">Str. Fagarasului, Nr.232, Hoghiz, BV<\/td><\/tr><\/tbody><\/table>" }, "geometry": { "type": "Point", "coordinates": [ 25.309673, 45.985687, 0.0 ] } },
{ "type": "Feature", "properties": { "Name": "Biblioteca Comunala Traian, BC ", "Description": "" }, "geometry": { "type": "Point", "coordinates": [ 27.034166, 46.625668, 0.0 ] } },
{ "type": "Feature", "properties": { "Name": "Biblioteca Comunala Livezi, BC", "Description": "" }, "geometry": { "type": "Point", "coordinates": [ 26.732538, 46.404716, 0.0 ] } },
{ "type": "Feature", "properties": { "Name": "Biblioteca de limbi străine. Mediateca. Biblioteca de artă. Biblioteca Județeană ”Mihai Eminescu” Botoșani", "Description": "<div dir=\"ltr\">Str. Unirii nr. 10, Botoșani - 710220<\/div>" }, "geometry": { "type": "Point", "coordinates": [ 26.658356, 47.744606, 0.0 ] } },
{ "type": "Feature", "properties": { "Name": "Biblioteca Centrală Universitară „Lucian Blaga”, Cluj-Napoca", "Description": "<div dir=\"ltr\">Str. Clinicilor, nr. 2, Cluj-Napoca, 400006<br><a href=\"http:\/\/www.bcucluj.ro\/\" target=\"_blank\">http:\/\/www.bcucluj.ro\/<\/a><br>Catalog: <a href=\"http:\/\/aleph-new.bcucluj.ro:8992\/F\" target=\"_blank\">http:\/\/aleph-new.bcucluj.ro:8992\/F<\/a><\/div>" }, "geometry": { "type": "Point", "coordinates": [ 23.584986, 46.766991, 0.0 ] } },
{ "type": "Feature", "properties": { "Name": "Bibliotecii Universităţii din Oradea", "Description": "<div style=\"font-family:arial;font-size:10pt\">Str. Universităţii, nr. 1, 410087<\/div><div style=\"font-family:arial;font-size:10pt\"><a href=\"http:\/\/www.nymphea.ro\/BIBUO\/index.html\" target=\"_blank\">http:\/\/www.nymphea.ro\/BIBUO\/index.html<\/a><\/div><div><font face=\"arial\" size=\"2\"><a href=\"http:\/\/buoradea.blogspot.ro\/\" target=\"_blank\">http:\/\/buoradea.blogspot.ro\/<\/a><\/font><\/div><div style=\"font-family:arial;font-size:10pt\">Catalog: <a href=\"http:\/\/217.73.175.70:10080\/liberty3\/gateway\/gateway.exe?application=Liberty3&amp;displayform=opac\/main\" target=\"_blank\">http:\/\/217.73.175.70:10080\/liberty3\/gateway\/gateway.exe?application=Liberty3&amp;displayform=opac\/main<\/a><\/div>" }, "geometry": { "type": "Point", "coordinates": [ 21.918402, 47.04285, 0.0 ] } },
{ "type": "Feature", "properties": { "Name": "Biblioteca Universității „Lucian Blaga”, Sibiu", "Description": "<div>Adresa fizică: str. Lucian Blaga nr. 2A, Sibiu<\/div><div><a href=\"http:\/\/bcu.ulbsibiu.ro\/\" target=\"_blank\">http:\/\/bcu.ulbsibiu.ro\/<\/a><\/div><div>Catalog: <a href=\"http:\/\/biblioteca.ulbsibiu.ro\/Liberty3\/gateway\/gateway.exe?application=Liberty3&amp;displayform=opac\/main\" target=\"_blank\">http:\/\/biblioteca.ulbsibiu.ro\/Liberty3\/gateway\/gateway.exe?application=Liberty3&amp;displayform=opac\/main<\/a><\/div><div><br>&nbsp;<\/div>" }, "geometry": { "type": "Point", "coordinates": [ 24.156681, 45.793442, 0.0 ] } },
{ "type": "Feature", "properties": { "Name": "Biblioteca Universității „Transilvania”, Brașov", "Description": "<div>Str. Iuliu Maniu, nr. 41A, 500091<\/div><div><a href=\"http:\/\/but.unitbv.ro\/\" target=\"_blank\">http:\/\/but.unitbv.ro\/<\/a><\/div><div>Catalog: <a href=\"http:\/\/but.unitbv.ro\/opac.htm\" target=\"_blank\">http:\/\/but.unitbv.ro\/opac.htm<\/a><\/div>" }, "geometry": { "type": "Point", "coordinates": [ 25.603069, 45.650814, 0.0 ] } },
{ "type": "Feature", "properties": { "Name": "Biblioteca Universitatii „Valahia” din Târgoviște", "Description": "<div>Str. Lt. Stancu Ion, nr. 39<\/div><div><a href=\"http:\/\/biblioteca.valahia.ro\/\" target=\"_blank\">http:\/\/biblioteca.valahia.ro\/<\/a><\/div><div>Catalog: <a href=\"http:\/\/liberty.valahia.ro\/liberty3\/gateway\/gateway.exe?application=Liberty3&amp;displayform=opac\/main\" target=\"_blank\">http:\/\/liberty.valahia.ro\/liberty3\/gateway\/gateway.exe?application=Liberty3&amp;displayform=opac\/main<\/a><\/div>" }, "geometry": { "type": "Point", "coordinates": [ 25.465891, 44.921158, 0.0 ] } },
{ "type": "Feature", "properties": { "Name": "Biblioteca Universității „Ștefan cel Mare” din Suceava", "Description": "<div dir=\"ltr\">Str. Universităţii, Nr. 13, 720229, Suceava<br><a href=\"http:\/\/www.biblioteca.usv.ro\/\" target=\"_blank\">http:\/\/www.biblioteca.usv.ro\/<\/a><br>Catalog: <a href=\"http:\/\/exlibris.usv.ro:8991\/F\" target=\"_blank\">http:\/\/exlibris.usv.ro:8991\/F<\/a><\/div>" }, "geometry": { "type": "Point", "coordinates": [ 26.244211, 47.640163, 0.0 ] } },
{ "type": "Feature", "properties": { "Name": "Biblioteca Centrală Universitară „Eugen Todoran”, Timișoara", "Description": "<div dir=\"ltr\" style=\"font-family:arial;font-size:10pt\">Bd. Vasile Pârvan, nr. 4A, 300223<br><a href=\"http:\/\/www.bcut.ro\/\" target=\"_blank\">http:\/\/www.bcut.ro\/<\/a><\/div><div dir=\"ltr\"><font face=\"arial\" size=\"2\"><a href=\"https:\/\/www.facebook.com\/pages\/Biblioteca-Centrala-Universitara-Eugen-Todoran\" target=\"_blank\">https:\/\/www.facebook.com\/pages\/Biblioteca-Centrala-Universitara-Eugen-Todoran<\/a><\/font><br><font face=\"arial\" size=\"2\">Catalog: <\/font><a href=\"http:\/\/aleph.bcut.ro\/F\/?func=find-b&amp;find_code=WRD&amp;local_base=CUT01&amp;request=\" style=\"font-family:arial;font-size:10pt\" target=\"_blank\">http:\/\/aleph.bcut.ro\/F\/?func=find-b&amp;find_code=WRD&amp;local_base=CUT01&amp;request=<\/a><\/div>" }, "geometry": { "type": "Point", "coordinates": [ 21.23271, 45.747387, 0.0 ] } },
{ "type": "Feature", "properties": { "Name": "Biblioteca Orăşenească „Profesor Ion Buzea”, Măcin", "Description": "<div dir=\"ltr\">Str. Florilor, nr. 31, Măcin, 825300<br><a href=\"http:\/\/biblioteca-macin.blogspot.ro\/\" target=\"_blank\">http:\/\/biblioteca-macin.blogspot.ro\/<\/a><br><a href=\"https:\/\/www.facebook.com\/messages\/biblioteca.macin\" target=\"_blank\">https:\/\/www.facebook.com\/messages\/biblioteca.macin<\/a><\/div>" }, "geometry": { "type": "Point", "coordinates": [ 28.133631, 45.247299, 0.0 ] } },
{ "type": "Feature", "properties": { "Name": "Biblioteca Orăşenească „Jean Bart”, Sulina", "Description": "<div dir=\"ltr\">Str. I, nr. 178, Sulina, 825400, Tulcea<br><\/div>" }, "geometry": { "type": "Point", "coordinates": [ 29.654299, 45.1563, 0.0 ] } },
{ "type": "Feature", "properties": { "Name": "Biblioteca Orăşenească „Pontus Euxinus”, Năvodari", "Description": "<div dir=\"ltr\">Strada Constanței<\/div><div dir=\"ltr\"><a href=\"https:\/\/www.facebook.com\/pages\/Biblioteca-Pontus-Euxinus-Navodari\" style=\"font-size:10pt\" target=\"_blank\">https:\/\/www.facebook.com\/pages\/Biblioteca-Pontus-Euxinus-Navodari<\/a><\/div>" }, "geometry": { "type": "Point", "coordinates": [ 28.608913, 44.322296, 0.0 ] } },
{ "type": "Feature", "properties": { "Name": "Biblioteca Orăşenească Luduş", "Description": "<div dir=\"ltr\">Str. 1 Decembrie 1918, 19, Ludus, Mures, 545200<br><a href=\"http:\/\/bibliotecaoraseneascaludus.blogspot.ro\/\" target=\"_blank\">http:\/\/bibliotecaoraseneascaludus.blogspot.ro\/<\/a><\/div>" }, "geometry": { "type": "Point", "coordinates": [ 24.095631, 46.47575, 0.0 ] } },
{ "type": "Feature", "properties": { "Name": "Biblioteca Orășenească Bicaz", "Description": "<div>Str. Aleea Teilor nr. 18, Bicaz, 615100<\/div><div><a href=\"http:\/\/www.bibliotecabicaz.ro\/\" target=\"_blank\">http:\/\/www.bibliotecabicaz.ro\/<\/a><\/div>" }, "geometry": { "type": "Point", "coordinates": [ 26.090008, 46.912884, 0.0 ] } },
{ "type": "Feature", "properties": { "Name": "Biblioteca Orăşenească Gherla", "Description": "<div dir=\"ltr\">iața Libertății, Nr. 4, Gherla, 405300<\/div>" }, "geometry": { "type": "Point", "coordinates": [ 23.908159, 47.028187, 0.0 ] } },
{ "type": "Feature", "properties": { "Name": "Biblioteca Municipală „Ioan Munteanu”, Marghita", "Description": "<div dir=\"ltr\">T.Vladimirescu, nr. 1, Marghita, Bihor, cod 415300<br><a href=\"http:\/\/marghita-biblioteca-municipala.blogspot.ro\/\" target=\"_blank\">http:\/\/marghita-biblioteca-municipala.blogspot.ro\/<\/a><\/div>" }, "geometry": { "type": "Point", "coordinates": [ 22.340139, 47.34893, 0.0 ] } },
{ "type": "Feature", "properties": { "Name": "Biblioteca Orăşenească \"Anton Pann\" Filiaşi", "Description": "<div dir=\"ltr\">Bd. Racoţeanu, nr.157, Filiaşi<br><a href=\"http:\/\/www.bibliotecafiliasi.ro\/\" target=\"_blank\">http:\/\/www.bibliotecafiliasi.ro\/<\/a><\/div>" }, "geometry": { "type": "Point", "coordinates": [ 23.523109, 44.552643, 0.0 ] } },
{ "type": "Feature", "properties": { "Name": "Biblioteca Municipală „Eugen Lovinescu”, Fălticeni", "Description": "<div dir=\"ltr\">Str. Republicii 14, Fălticeni, 725200<br><a href=\"http:\/\/bibliotecafalticeni.wordpress.com\/\" target=\"_blank\">http:\/\/bibliotecafalticeni.wordpress.com\/<\/a><\/div>" }, "geometry": { "type": "Point", "coordinates": [ 26.299459, 47.462711, 0.0 ] } },
{ "type": "Feature", "properties": { "Name": "Biblioteca Municipală Adjud", "Description": "<div dir=\"ltr\">Str. Libertăţii, nr. 7A<br><a href=\"http:\/\/www.bibliotecaadjud.ro\/\" target=\"_blank\">http:\/\/www.bibliotecaadjud.ro\/<\/a><br>Catalog: <a href=\"http:\/\/89.46.177.97:8080\/opac\" target=\"_blank\">http:\/\/89.46.177.97:8080\/opac<\/a><\/div>" }, "geometry": { "type": "Point", "coordinates": [ 27.185272, 46.094387, 0.0 ] } },
{ "type": "Feature", "properties": { "Name": "Biblioteca Municipală „Petru Maior”, Reghin", "Description": "<div dir=\"ltr\">Str. Petru Maior nr. 1, 545300<\/div>" }, "geometry": { "type": "Point", "coordinates": [ 24.699938, 46.7798, 0.0 ] } },
{ "type": "Feature", "properties": { "Name": "Biblioteca Municipală „Zaharia Boiu”, Sighișoara", "Description": "<div dir=\"ltr\">Str. Hermann Oberth, nr. 22, Sighişoara<\/div>" }, "geometry": { "type": "Point", "coordinates": [ 24.794394, 46.217571, 0.0 ] } },
{ "type": "Feature", "properties": { "Name": "Biblioteca Municipală Odorheiu Secuiesc", "Description": "<div dir=\"ltr\">Piaţa Kõkereszt  nr. 2, Odorheiu Secuiesc, 535600<br><a href=\"http:\/\/www.biblioudv.ro\/\" target=\"_blank\">http:\/\/www.biblioudv.ro\/<\/a>&nbsp;<a href=\"https:\/\/www.facebook.com\/Biblioudv\" target=\"_blank\">facebook<\/a><\/div>" }, "geometry": { "type": "Point", "coordinates": [ 25.297136, 46.303516, 0.0 ] } },
{ "type": "Feature", "properties": { "Name": "Biblioteca Municipală Săcele, Braşov", "Description": "<div dir=\"ltr\">Bd. George Moroianu, nr 110, Săcele, 505600<\/div>" }, "geometry": { "type": "Point", "coordinates": [ 25.705631, 45.619408, 0.0 ] } },
{ "type": "Feature", "properties": { "Name": "Biblioteca Orăşenească Teiuş, Alba", "Description": "<font face=\"arial\" size=\"2\">Str. Decebal, nr. 31, Teiuş, 515900<\/font>" }, "geometry": { "type": "Point", "coordinates": [ 23.676785, 46.205799, 0.0 ] } },
{ "type": "Feature", "properties": { "Name": "Biblioteca Orăşenească Berbeşti", "Description": "<font face=\"arial\" size=\"2\">Str. Principală, Berbeşti, 247039<\/font>" }, "geometry": { "type": "Point", "coordinates": [ 23.869246, 44.989956, 0.0 ] } },
{ "type": "Feature", "properties": { "Name": "Biblioteca Orașenească Isaccea", "Description": "<div dir=\"ltr\">Oras Isaccea, Jud.Tulcea<\/div>" }, "geometry": { "type": "Point", "coordinates": [ 28.459171, 45.27343, 0.0 ] } },
{ "type": "Feature", "properties": { "Name": "Biblioteca Comunala  Dumitru Cerna, TL", "Description": "<div dir=\"ltr\">Comuna Cerna,jud.Tulcea<br>http:\/\/bibliocerna.blogspot.ro\/?spref=fb<\/div>" }, "geometry": { "type": "Point", "coordinates": [ 28.299314, 45.077187, 0.0 ] } },
{ "type": "Feature", "properties": { "Name": "Biblioteca Comunala Nalbant, TL", "Description": "<div dir=\"ltr\">Comuna Nalbant,jud.Tulcea<\/div>" }, "geometry": { "type": "Point", "coordinates": [ 28.614534, 45.048542, 0.0 ] } },
{ "type": "Feature", "properties": { "Name": "Biblioteca Universităţii „Ovidius” din Constanţa", "Description": "B-dul Mamaia nr. 124, Constanța, România<br><span><span style=\"color:#000000\">Telefon : 0241 606421<br><\/span><\/span><span><span style=\"color:#000000\">Email: <a target=\"_blank\">lapusan@univ-ovidius.ro<\/a> -  Conf. univ. dr. Aurelia Lăpușan - Directorul Direcției Editoriale, Carte Universitară și Relații Publice<\/span><\/span><br>Site oficial: <a href=\"http:\/\/biblioteca.univ-ovidius.ro\/\" target=\"_blank\">http:\/\/biblioteca.univ-ovidius.ro\/<\/a><br>Catalog online: <a href=\"http:\/\/aleph.univ-ovidius.ro:8991\/F\/\" target=\"_blank\">http:\/\/aleph.univ-ovidius.ro:8991\/F\/<\/a><br>" }, "geometry": { "type": "Point", "coordinates": [ 28.649813, 44.194641, 0.0 ] } },
{ "type": "Feature", "properties": { "Name": "Biblioteca Universității din Craiova", "Description": "<div dir=\"ltr\">Str. A. I. Cuza nr.13, Craiova, 200585<br><a href=\"http:\/\/biblio.central.ucv.ro\/\" target=\"_blank\">http:\/\/biblio.central.ucv.ro\/<\/a><br>Catalog: <a href=\"http:\/\/193.231.40.234:8080\/opac\" target=\"_blank\">http:\/\/193.231.40.234:8080\/opac<\/a><\/div>" }, "geometry": { "type": "Point", "coordinates": [ 23.801001, 44.319435, 0.0 ] } },
{ "type": "Feature", "properties": { "Name": "Biblioteca Centrală a Universității „Politehnica” din București", "Description": "<div dir=\"ltr\">Splaiul Independentei 313 Corp A, parter<br><a href=\"http:\/\/www.library.pub.ro\/\" target=\"_blank\">http:\/\/www.library.pub.ro\/<\/a><br>Catalog: <a href=\"http:\/\/aleph.library.pub.ro:8991\/F?RN=681369764\" target=\"_blank\">http:\/\/aleph.library.pub.ro:8991\/F?RN=681369764<\/a><\/div>" }, "geometry": { "type": "Point", "coordinates": [ 26.05131, 44.441166, 0.0 ] } },
{ "type": "Feature", "properties": { "Name": "Filiala nr. 2 ”Grivița”. Biblioteca Județeană ”Mihai Eminescu” Botoșani", "Description": "<div dir=\"ltr\">Str. Grivița nr. 13 bl. Z9, Botoșani - 710261<\/div>" }, "geometry": { "type": "Point", "coordinates": [ 26.668936, 47.749165, 0.0 ] } },
{ "type": "Feature", "properties": { "Name": "Filiala nr. 1 ”Primăverii”. Biblioteca Județeană ”Mihai Eminescu” Botoșani", "Description": "<div dir=\"ltr\">Str. Primăverii nr. 25, Botoșani - 710176<\/div>" }, "geometry": { "type": "Point", "coordinates": [ 26.649691, 47.740898, 0.0 ] } },
{ "type": "Feature", "properties": { "Name": "Filiala nr. 3 (în incinta Şcolii Gimnazială nr. 16 Botoșani). Biblioteca Județeană ”Mihai Eminescu” Botoșani", "Description": "<div dir=\"ltr\">Aleea Pacea nr. 7, Botoșani - 710143<\/div>" }, "geometry": { "type": "Point", "coordinates": [ 26.648659, 47.738045, 0.0 ] } },
{ "type": "Feature", "properties": { "Name": "Biblioteca Municipală Mangalia", "Description": "<div dir=\"ltr\">Șos. Constanței nr. 6 bloc M, Mangalia - 905500 <\/div>" }, "geometry": { "type": "Point", "coordinates": [ 28.583435, 43.812927, 0.0 ] } },
{ "type": "Feature", "properties": { "Name": "Biblioteca Universităţii Petrol – Gaze din Ploieşti", "Description": "<div dir=\"ltr\">B-dul Bucureşti, nr. 39, Of. Poştal 13, CP 22, Ploieşti<br><a href=\"http:\/\/www.upg-ploiesti.ro\/campus\/biblioteca\" target=\"_blank\">http:\/\/www.upg-ploiesti.ro\/campus\/biblioteca<\/a><br>&nbsp;<\/div>" }, "geometry": { "type": "Point", "coordinates": [ 26.037319, 44.913242, 0.0 ] } },
{ "type": "Feature", "properties": { "Name": "Biblioteca Universității din Pitești", "Description": "<div>Str. Târgu din Vale, Nr. 1, 10040, Piteşti<\/div><div><a href=\"http:\/\/fmi.upit.ro\/bibl\/Pagina%20WEB\/Site_nou\/Pag_inceput_files\/pag_intrare.htm?i=15\" target=\"_blank\">http:\/\/fmi.upit.ro\/bibl\/Pagina%20WEB\/Site_nou\/Pag_inceput_files\/pag_intrare.htm?i=15<\/a><\/div><div><a href=\"http:\/\/bibliopit.blogspot.ro\/\" target=\"_blank\">http:\/\/bibliopit.blogspot.ro\/<\/a><\/div><div>Catalog: <a href=\"http:\/\/cat-biblioteca.upit.ro:8080\/tinread.jsp\" target=\"_blank\">http:\/\/cat-biblioteca.upit.ro:8080\/tinread.jsp<\/a><\/div>" }, "geometry": { "type": "Point", "coordinates": [ 24.880638, 44.85532, 0.0 ] } },
{ "type": "Feature", "properties": { "Name": "Biblioteca Universității din Petroșani", "Description": "<div>Str. Universității nr. 20, 332006, Petroșani<\/div><div><a href=\"http:\/\/www.upet.ro\/biblioteca\/\" target=\"_blank\">http:\/\/www.upet.ro\/biblioteca\/<\/a><\/div><div>Catalog: <a href=\"http:\/\/www.upet.ro\/biblioteca\/catalog.php\" target=\"_blank\">http:\/\/www.upet.ro\/biblioteca\/catalog.php<\/a><\/div><div><img src=\"http:\/\/www.upet.ro\/resuniv\/img\/biblioteca\/biblioteca2.jpg\" style=\"width:259px\"><\/div>" }, "geometry": { "type": "Point", "coordinates": [ 23.375645, 45.418545, 0.0 ] } },
{ "type": "Feature", "properties": { "Name": "Biblioteca „Valeriu Bologa\", Universitatea de Medicină și Farmacie „Iuliu Hațieganu”, Cluj-Napoca", "Description": "<div>Str. Victor Babeș, Nr. 8, 400012, Cluj-Napoca<\/div><div><a href=\"http:\/\/www.umfcluj.ro\/index.php\/ro\/educatie-ro\/reurseedu-ro\/biblioteca-ro\" target=\"_blank\">http:\/\/www.umfcluj.ro\/index.php\/ro\/educatie-ro\/reurseedu-ro\/biblioteca-ro<\/a><\/div><div>Catalog: <a href=\"http:\/\/www.liberty3.umfcluj.ro\/liberty3\/gateway\/gateway.exe?application=Liberty3&amp;displayform=opac\/main\" target=\"_blank\">http:\/\/www.liberty3.umfcluj.ro\/liberty3\/gateway\/gateway.exe?application=Liberty3&amp;displayform=opac\/main<\/a><\/div>" }, "geometry": { "type": "Point", "coordinates": [ 23.583332, 46.761898, 0.0 ] } },
{ "type": "Feature", "properties": { "Name": "Biblioteca Universității de Arhitectura și Urbanism „Ion Mincu”", "Description": "<div>Str. Academiei nr. 18-20, Sector 1, București<\/div><div><a href=\"http:\/\/www.uauim.ro\/biblioteca\/\" target=\"_blank\">http:\/\/www.uauim.ro\/biblioteca\/<\/a><\/div><div>Catalog: <a href=\"http:\/\/www.catalogbiblioteca.ro\/ro\/ro\/01\/GeneralSearchForm.aspx?clientID=2\" target=\"_blank\">http:\/\/www.catalogbiblioteca.ro\/ro\/ro\/01\/GeneralSearchForm.aspx?clientID=2<\/a><\/div>" }, "geometry": { "type": "Point", "coordinates": [ 26.099733, 44.436447, 0.0 ] } },
{ "type": "Feature", "properties": { "Name": "Biblioteca Academiei Române", "Description": "<div dir=\"ltr\">Calea Victoriei 125, Sector 1, Bucureşti<br><a href=\"http:\/\/www.biblacad.ro\/\" target=\"_blank\">http:\/\/www.biblacad.ro\/<\/a><br>Catalog: <a href=\"http:\/\/aleph500.biblacad.ro:8991\/F\" target=\"_blank\">http:\/\/aleph500.biblacad.ro:8991\/F<\/a><\/div>" }, "geometry": { "type": "Point", "coordinates": [ 26.087723, 44.445301, 0.0 ] } },
{ "type": "Feature", "properties": { "Name": "Biblioteca Universității de Medicină și Farmacie „Carol Davila”, București", "Description": "<div style=\"font-family:arial;font-size:10pt\">Blv. Eroii Sanitari nr. 8, București, Sector 1<\/div><div style=\"font-family:arial;font-size:10pt\"><a href=\"http:\/\/www.biblioteca.umf.ro\" target=\"_blank\">http:\/\/www.biblioteca.umf.ro<\/a><\/div><div><font face=\"arial\" size=\"2\"><a href=\"https:\/\/www.facebook.com\/BibliotecaUMF?fref=ts\" target=\"_blank\">https:\/\/www.facebook.com\/BibliotecaUMF?fref=ts<\/a><\/font><\/div><div style=\"font-family:arial;font-size:10pt\">Catalog: <a href=\"http:\/\/liberty3.umf.ro\/liberty3\/gateway\/gateway.exe?application=Liberty3&amp;displayform=frame\" target=\"_blank\">http:\/\/liberty3.umf.ro\/liberty3\/gateway\/gateway.exe?application=Liberty3&amp;displayform=frame<\/a><\/div>" }, "geometry": { "type": "Point", "coordinates": [ 26.06974, 44.434601, 0.0 ] } },
{ "type": "Feature", "properties": { "Name": "Biblioteca Universităţii „Politehnica”, Timișoara", "Description": "<div style=\"font-family:arial;font-size:10pt\">Str.Vincenţiu Babeș, nr. 8, 300004, Timișoara<\/div><div style=\"font-family:arial;font-size:10pt\"><a href=\"http:\/\/www.library.upt.ro\/\" target=\"_blank\">http:\/\/www.library.upt.ro\/<\/a><\/div><div><font face=\"arial\" size=\"2\"><a href=\"https:\/\/www.facebook.com\/UPTLibrary\" target=\"_blank\">https:\/\/www.facebook.com\/UPTLibrary<\/a><\/font><\/div><div style=\"font-family:arial;font-size:10pt\">Catalog: <a href=\"http:\/\/aleph.library.upt.ro\/F\/?func=option-update-lng&amp;file_name=find-b&amp;F2=pc-latin&amp;P_CON_LNG=RUM\" target=\"_blank\">http:\/\/aleph.library.upt.ro\/F\/?func=option-update-lng&amp;file_name=find-b&amp;F2=pc-latin&amp;P_CON_LNG=RUM<\/a><\/div><div style=\"font-family:arial;font-size:10pt\"><img src=\"http:\/\/www.library.upt.ro\/pics\/parter.gif\" style=\"width:259px\"><\/div>" }, "geometry": { "type": "Point", "coordinates": [ 21.223257, 45.752544, 0.0 ] } },
{ "type": "Feature", "properties": { "Name": "Filiala Chimie, Biblioteca Universităţii „Politehnica”, Timișoara", "Description": "<font face=\"arial\" size=\"2\">Str.Vincenţiu Babeş nr.8, 300004 Timişoara<\/font><div><img src=\"http:\/\/www.library.upt.ro\/pics\/etaj2.gif\" style=\"width:259px\"><\/div>" }, "geometry": { "type": "Point", "coordinates": [ 21.223011, 45.752972, 0.0 ] } },
{ "type": "Feature", "properties": { "Name": "Filiala ELECTRO, Biblioteca Universităţii „Politehnica”, Timișoara", "Description": "<font face=\"arial\" size=\"2\">B-dul Pârvan, nr.2, 300004, Timişoara<\/font>" }, "geometry": { "type": "Point", "coordinates": [ 21.226746, 45.74728, 0.0 ] } },
{ "type": "Feature", "properties": { "Name": "Filiala Mecanică, Biblioteca Universităţii „Politehnica”, Timișoara", "Description": "<font face=\"arial\" size=\"2\">B-dul Mihai Viteazul, nr.1, 300004, Timişoara<\/font>" }, "geometry": { "type": "Point", "coordinates": [ 21.225811, 45.745949, 0.0 ] } },
{ "type": "Feature", "properties": { "Name": "Filiala Construcții, Biblioteca Universităţii „Politehnica”, Timișoara", "Description": "<font face=\"arial\" size=\"2\">Str.Traian Lalescu nr.2A, 300004, Timişoara<\/font>" }, "geometry": { "type": "Point", "coordinates": [ 21.229868, 45.745495, 0.0 ] } },
{ "type": "Feature", "properties": { "Name": "Biblioteca Universității Creștine „Dimitrie Cantemir”, București", "Description": "<font face=\"arial\" size=\"2\">Splaiul Unirii, nr. 176, sector 4, București<\/font><div><font face=\"arial\" size=\"2\"><a href=\"http:\/\/www.ucdc.ro\/biblioteca-ucdc.php\" target=\"_blank\">http:\/\/www.ucdc.ro\/biblioteca-ucdc.php<\/a><\/font><\/div>" }, "geometry": { "type": "Point", "coordinates": [ 26.114372, 44.414211, 0.0 ] } },
{ "type": "Feature", "properties": { "Name": "Biblioteca Universității de Medicină și Farmacie, Craiova", "Description": "<div>Str. Petru Rareș, nr. 4, Craiova, 200349<\/div><div><a href=\"http:\/\/www.umfcv.ro\/biblioteca\" target=\"_blank\">http:\/\/www.umfcv.ro\/biblioteca<\/a><\/div><div>Catalog: <a href=\"http:\/\/liberty.umfcv.ro:8080\/Liberty3\/gateway\/gateway.exe?application=Liberty3&amp;displayform=opac\/main\" target=\"_blank\">http:\/\/liberty.umfcv.ro:8080\/Liberty3\/gateway\/gateway.exe?application=Liberty3&amp;displayform=opac\/main<\/a><\/div>" }, "geometry": { "type": "Point", "coordinates": [ 23.797707, 44.308865, 0.0 ] } },
{ "type": "Feature", "properties": { "Name": "Biblioteca filialei Iași a Academiei Române", "Description": "<div dir=\"ltr\">Bd. Carol I, nr.8, 700506<br><a href=\"http:\/\/bib.acadiasi.ro\/\" target=\"_blank\">http:\/\/bib.acadiasi.ro\/<\/a><br>Catalog: <a href=\"http:\/\/85.186.121.42:8991\/F?RN=175818451\" target=\"_blank\">http:\/\/85.186.121.42:8991\/F?RN=175818451<\/a><\/div>" }, "geometry": { "type": "Point", "coordinates": [ 27.574301, 47.173218, 0.0 ] } },
{ "type": "Feature", "properties": { "Name": "Biblioteca Centrală Universitară „Tudor Arghezi”, Arad", "Description": "<font face=\"arial\" size=\"2\" style=\"font-family:arial;font-size:10pt\">B-dul Revoluţiei, nr. 85-87, Arad<\/font><div><font face=\"arial\" size=\"2\"><a href=\"http:\/\/www.uvvg.ro\/ro\/biblioteca.html\" target=\"_blank\">http:\/\/www.uvvg.ro\/ro\/biblioteca.html<\/a><\/font><\/div>" }, "geometry": { "type": "Point", "coordinates": [ 21.317354, 46.172764, 0.0 ] } },
{ "type": "Feature", "properties": { "Name": "Biblioteca de Ştiinţe Umaniste, Psihologie şi Ştiinţele Educaţiei, BCU „Tudor Arghezi”, Arad", "Description": "<font face=\"arial\" size=\"2\">B-dul Revoluţiei, nr. 85-87, Arad<\/font>" }, "geometry": { "type": "Point", "coordinates": [ 21.317392, 46.172672, 0.0 ] } },
{ "type": "Feature", "properties": { "Name": "Biblioteca Facultăţii de Ştiinţe Economice, BCU „Tudor Arghezi”, Arad", "Description": "<font face=\"arial\" size=\"2\">Str. Mihai Eminescu, nr. 15 etaj I<\/font>" }, "geometry": { "type": "Point", "coordinates": [ 21.312355, 46.171848, 0.0 ] } },
{ "type": "Feature", "properties": { "Name": "Biblioteca Facultăţii de Medicină, Farmacie şi Medicină Dentară, BCU „Tudor Arghezi”, Arad", "Description": "<font face=\"arial\" size=\"2\">Campusul Universitar „Vasile Goldiş”, corp A, et. I. sala 20 a. şi b.<\/font><div><font face=\"arial\" size=\"2\"><div>Str. Liviu Rebreanu, nr. 86, 310048, Arad<\/div><\/font><\/div>" }, "geometry": { "type": "Point", "coordinates": [ 21.296494, 46.180546, 0.0 ] } },
{ "type": "Feature", "properties": { "Name": "Biblioteca Facultăţii de Ştiinţe ale Naturii, Inginerie şi Informatică, BCU „Tudor Arghezi”, Arad", "Description": "<font face=\"arial\" size=\"2\">Campusul Universitar „Vasile Goldiş”, corp A, et. I. sala 20 c.<\/font><div><font face=\"arial\" size=\"2\"><div>Str. Liviu Rebreanu, nr. 86, 310048, Arad<\/div><\/font><\/div>" }, "geometry": { "type": "Point", "coordinates": [ 21.296621, 46.180813, 0.0 ] } },
{ "type": "Feature", "properties": { "Name": "Biblioteca Europeană de Ştiinţe Bio-medicale, BCU „Tudor Arghezi”, Arad", "Description": "<font face=\"arial\" size=\"2\">Str. Feleacului, nr. 1<\/font>" }, "geometry": { "type": "Point", "coordinates": [ 21.307619, 46.184109, 0.0 ] } },
{ "type": "Feature", "properties": { "Name": "Biblioteca Clinicii Medicală II, BCU „Tudor Arghezi”, Arad", "Description": "<font face=\"arial\" size=\"2\">Str. Andreny Karoly, nr. 2 - 4, 310037, Arad<\/font>" }, "geometry": { "type": "Point", "coordinates": [ 21.307167, 46.183151, 0.0 ] } },
{ "type": "Feature", "properties": { "Name": "Biblioteca Clinicii stomatologice „Aurel Vlaicu”, BCU „Tudor Arghezi”, Arad", "Description": "<font face=\"arial\" size=\"2\">Str. Călăraşilor nr.3<\/font>" }, "geometry": { "type": "Point", "coordinates": [ 21.299765, 46.197552, 0.0 ] } },
{ "type": "Feature", "properties": { "Name": "Biblioteca „Espace Universitaire Francophone”, BCU „Tudor Arghezi”, Arad", "Description": "<font face=\"arial\" size=\"2\">Bd. Revoluţiei nr.85-87<\/font>" }, "geometry": { "type": "Point", "coordinates": [ 21.317316, 46.172562, 0.0 ] } },
{ "type": "Feature", "properties": { "Name": "Biblioteca Centrului de limbă şi cultură germană „Friederich Schiller”, BCU „Tudor Arghezi”, Arad", "Description": "<font face=\"arial\" size=\"2\">Str. Unirii nr.3<\/font>" }, "geometry": { "type": "Point", "coordinates": [ 21.317076, 46.171352, 0.0 ] } },
{ "type": "Feature", "properties": { "Name": "Mediateca şi colecţiile speciale - Casa Universitarilor şi Studenţilor", "Description": "<div>Bd. Revoluţiei, nr.92<\/div><div><br>&nbsp;<\/div>" }, "geometry": { "type": "Point", "coordinates": [ 21.316072, 46.173328, 0.0 ] } },
{ "type": "Feature", "properties": { "Name": "Biblioteca Centrului de studii teoretice şi literare „Ioan Slavici”, BCU „Tudor Arghezi”, Arad", "Description": "<font face=\"arial\" size=\"2\">Str. Vasile Goldiş, nr. 6<\/font>" }, "geometry": { "type": "Point", "coordinates": [ 21.313831, 46.171013, 0.0 ] } },
{ "type": "Feature", "properties": { "Name": "Biblioteca Muzeului Memorial „Vasile Goldiş”", "Description": "<font face=\"arial\" size=\"2\">Str. Vasile Goldiş, nr.6<\/font>" }, "geometry": { "type": "Point", "coordinates": [ 21.313787, 46.170967, 0.0 ] } },
{ "type": "Feature", "properties": { "Name": "Biblioteca Comunală Adunații Copăceni, GR", "Description": "<div dir=\"ltr\">Adunaţii Copăceni, 087005, Giurgiu<\/div>" }, "geometry": { "type": "Point", "coordinates": [ 26.047501, 44.253853, 0.0 ] } },
{ "type": "Feature", "properties": { "Name": "Secția Împrumut pentru Copii, Biblioteca Jud. I. G. Bibicescu", "Description": "<u><b>Adresa<\/b><\/u>: <i>str.<\/i> Ștefan Odobleja, nr. 59<br><i>Loc<\/i>. Drobeta Turnu Severin<br><i>Cod poștal<\/i>: 220149<br><b>Program<\/b>:<i> Luni-Vineri, 9-17<\/i><br>" }, "geometry": { "type": "Point", "coordinates": [ 22.661442, 44.625683, 0.0 ] } },
{ "type": "Feature", "properties": { "Name": "Filiala Obcini, Biblioteca Judeţeană „I.G.Sbiera”, Suceava", "Description": "<div dir=\"ltr\">Str. Corneliu Coposu nr. 1<\/div>" }, "geometry": { "type": "Point", "coordinates": [ 26.236282, 47.63802, 0.0 ] } },
{ "type": "Feature", "properties": { "Name": "Filiala Burdujeni, Biblioteca Judeţeană „I.G.Sbiera”, Suceava", "Description": "<div dir=\"ltr\">Calea Unirii nr. 59A<\/div>" }, "geometry": { "type": "Point", "coordinates": [ 26.280708, 47.672688, 0.0 ] } },
{ "type": "Feature", "properties": { "Name": "Secția Împrumut Carte Stăină, Biblioteca Jud. I. G. Bibicescu", "Description": "<b><u>Adresa<\/u>:<\/b> <i>str. <\/i>Ștefan Odobleja, nr. 59 <br><i>cod poștal<\/i>: 220146<br><i>Loc<\/i>: Drobeta Turnu Severin<br><strong><u>Contact:<\/u><\/strong> <br><i>e-mail<\/i>:<font color=\"#3366ff\"> sectiacartestraina@yahoo.com<br>Program: Luni- Vineri, 9.00-17.00<br><\/font>" }, "geometry": { "type": "Point", "coordinates": [ 22.661083, 44.625683, 0.0 ] } },
{ "type": "Feature", "properties": { "Name": "Secția Depozitul Legal de Documente, Biblioteca Jud. I. G. Bibicescu", "Description": "<b>Adresa<\/b>: <i>str<\/i>. Stefan Odobleja, nr. 59<br><i>cod poștal<\/i>: 220146<br><i>Loc.<\/i> Drobeta Turnu Severin<br>Program: Luni-Vineri, 9.00- 17.00<br>" }, "geometry": { "type": "Point", "coordinates": [ 22.661125, 44.625641, 0.0 ] } },
{ "type": "Feature", "properties": { "Name": "Secția Sala de Lectură nr. 2, Biblioteca Jud. I. G. Bibicescu", "Description": "<b>Adresa<\/b>. <i>str. <\/i>Traian<i>,<\/i> nr. 85 ( et. 4 )<br><i>Loc<\/i>. Drobeta Turnu Severin<br><b>Contact:<\/b> Tel . 0352401624<br><b>Program:<\/b> Luni-Vineri 9.00-19.00<br>&nbsp;&nbsp;&nbsp;&nbsp;&nbsp;&nbsp;&nbsp;&nbsp;&nbsp;&nbsp;&nbsp;&nbsp; &nbsp; Sâmbătă: 9-13<br>" }, "geometry": { "type": "Point", "coordinates": [ 22.652521, 44.626186, 0.0 ] } },
{ "type": "Feature", "properties": { "Name": "Biblioteca Comunală Vânători, MH", "Description": "<b>Adresa<\/b>: <i>loc<\/i>. Vânători, Jud. Mehedinți<br><i>cod poștal<\/i>: 227490<br>" }, "geometry": { "type": "Point", "coordinates": [ 22.929836, 44.242771, 0.0 ] } },
{ "type": "Feature", "properties": { "Name": "Biblioteca Comunală Bâcleș, MH", "Description": "<b>Adresa<\/b>: <i>sat<\/i>. Bacleș, <i>com<\/i>, Bâcleș, județul Mehedinți<br><i>cod poștal<\/i>: 227045<br><b>Contact<\/b>:<i> tel: <\/i>0252 375 351<br><table><tbody><tr><td valign=\"top\"><br><\/td> <td><br><\/td><\/tr><\/tbody><\/table>" }, "geometry": { "type": "Point", "coordinates": [ 23.12134, 44.487312, 0.0 ] } },
{ "type": "Feature", "properties": { "Name": "Biblioteca Comunală Corcova, MH", "Description": "<b>Adresa:<\/b><i> sat.<\/i> Corcova, <i>com.<\/i> Corcova,<i> jud.<\/i> Mehedinți<br><i>cod poștal:<\/i> 227125<br><b>Contact:<\/b> <i>Tel:<\/i> 0252 383 464<br>" }, "geometry": { "type": "Point", "coordinates": [ 23.044846, 44.697147, 0.0 ] } },
{ "type": "Feature", "properties": { "Name": "Secția Împrumut Crihala, Biblioteca Jud. I. G. Bibicescu, Mehedinți", "Description": "<b>Adresa:<\/b><i> str.<\/i> Crișan, nr. 84<br><i>Loc.<\/i> Drobeta Turnu Severin<br><i>cod poștal:<\/i> 220071<br><b>Contact:<\/b><i> tel:<\/i> 0352 405 384<br><i>e-mail:<\/i> <span><font color=\"#3333ff\">officecrihala@bjmehedinti.ro<\/font><br><b>Program:<\/b> <font color=\"#ff0000\">Luni-Vineri,<\/font><font color=\"#cc33cc\"> 9.00 - 17.00<\/font><br><\/span>" }, "geometry": { "type": "Point", "coordinates": [ 22.647409, 44.644497, 0.0 ] } },
{ "type": "Feature", "properties": { "Name": "Secția Împrumut Știință și Tehnică, Biblioteca Jud. I. G. Bibicescu, Mehedinți", "Description": "<b>Adresa.<\/b><i> str.<\/i> Crișan, nr. 84<br><i>Loc<\/i>. Drobeta Turnu Severin<br><i>cod poștal<\/i>: 220071<br><b>Contact:<\/b> <i>Tel<\/i>. 0770583402<br><i>e-mail. <\/i><font color=\"#000099\">bibicescu.stiintasitehnica@gmail.com<\/font><br><b>Program<\/b>: <font color=\"#993399\">Luni-Vineri,&nbsp;<\/font> <font color=\"#cc0000\">9.00 -17.00<\/font>" }, "geometry": { "type": "Point", "coordinates": [ 22.647373, 44.64452, 0.0 ] } },
{ "type": "Feature", "properties": { "Name": "Secția Imprumut Casa Tineretului, Biblioteca Jud. I. G. Bibicescu, Mehedinți", "Description": "<b>Adresa<\/b>:<i> str. <\/i>Crișan, nr. 25<br><i>Loc.<\/i> Drobeta Turnu Severin<br><i>cod poștal:<\/i> 220013<br><b>Contact:<\/b> Tel.<b> <\/b>0352405344<br>e-mail: <font color=\"#3333ff\"><span>officetineretului@bjmehedinti<br><font color=\"#000000\"><b>Program:<\/b> Luni - Vineri , 9.00-17.00<\/font><br><\/span><\/font>" }, "geometry": { "type": "Point", "coordinates": [ 22.650686, 44.633942, 0.0 ] } },
{ "type": "Feature", "properties": { "Name": "Secția Împrumut Andrei Stoianovici, Biblioteca Jud. I. G. Bibicescu, Mehedinți", "Description": "<b>Adresa:<\/b> <i>str<\/i>. Horia, <i>nr.<\/i> 2<br><i>Loc.<\/i> Drobeta Turnu Severin<br><i>Cod poștal<\/i>: 220132<br><b>Contact:<\/b> Tel. 0771700246<br>e-mail: <span>officestoianovici@bjmehedinti<br><b>Program:<\/b> Luni- Vineri, 9.00 - 17.00<br> <\/span>" }, "geometry": { "type": "Point", "coordinates": [ 22.651096, 44.627697, 0.0 ] } },
{ "type": "Feature", "properties": { "Name": "Secția Împrumut Literatură și Artă. Biblioteca Jud. I. G. Bibicescu, Mehedinți", "Description": "<b>Adresa<\/b>: <i>str. <\/i>Traian, nr. 85, et. 1<br><i>Loc.<\/i> Drobeta Turnu Severin<i><br><\/i><b>Contact<\/b><i>: e-mail: <\/i><span>officetraian@bjmdhedinti.ro<br>Program: Luni- Vineri, 9.00 - 17.00<br><\/span>" }, "geometry": { "type": "Point", "coordinates": [ 22.652546, 44.626171, 0.0 ] } },
{ "type": "Feature", "properties": { "Name": "Biblioteca Comunală Șimian, MH", "Description": "<div dir=\"ltr\"><b>Adresa<\/b>:<i> str. <\/i>DE 70<i>, nr. <\/i>64<i> , loc.<\/i> Șimian,<i> jud.<\/i> Mehedinți<br><i>cod poștal:<\/i> 227445<br><b>Contact:<\/b> <i>Tel: <\/i>0252 338 693<\/div>" }, "geometry": { "type": "Point", "coordinates": [ 22.709652, 44.611916, 0.0 ] } },
{ "type": "Feature", "properties": { "Name": "Biblioteca Casa Corpului Didactic, MH", "Description": "<div dir=\"ltr\"><b>Adresa<\/b>: <i>str.<\/i> Calomfirescu, nr. 94<br><i>loc.<\/i> Drobeta Turnu Severin<br><i>jud.<\/i> Mehedinți<br><b>Contact: <\/b>Tel. 0252\/321537,  0252\/306011<br>e-mail: <u>ccdmehedinţ<font color=\"#000000\"><a target=\"_blank\">i@go.ro<\/a><br><\/font><\/u><b><font color=\"#000000\">Pro<\/font><\/b><font color=\"#000000\"><b>gram:<\/b> Luni - Vineri, 9.00 - 17.00<\/font><u><font color=\"#000000\"><br><\/font><\/u><\/div>" }, "geometry": { "type": "Point", "coordinates": [ 22.651062, 44.630322, 0.0 ] } },
{ "type": "Feature", "properties": { "Name": "Secția Patrimoniu, Biblioteca Județeană I. G. Bibicescu, Mehedinți", "Description": "<b>Adresa:<\/b> <i>Str.<\/i> Ștefan Odobleja nr.59,<i>Loc<\/i>. Drobeta Turnu-Severin, Mehedinți<br><i>cod poștal<\/i>: 220145<br><b>Program:<\/b> Luni - Vineri, 9.00 - 17.00<br>" }, "geometry": { "type": "Point", "coordinates": [ 22.661137, 44.625607, 0.0 ] } },
{ "type": "Feature", "properties": { "Name": "Secția Sala de Lectură 1 Fond Tradițional & Periodice, Biblioteca Jud. I. G. Bibicescu, Mehedinți", "Description": "<b>Adresa:<\/b> <i>Str.<\/i> Ștefan Odobleja nr.59,&nbsp;<i>Loc<\/i>. Drobeta Turnu-Severin, Mehedinți<br><i>cod poștal<\/i>: 220145<br><b>Program:<\/b> Luni -&nbsp; Vineri, 9.00 - 17.00<br>" }, "geometry": { "type": "Point", "coordinates": [ 22.661064, 44.625618, 0.0 ] } },
{ "type": "Feature", "properties": { "Name": "Sectia Dezvoltare, Evidență, Catalogare și Prelucrarea Colecțiilor, Biblioteca Jud. I. G. Bibicescu", "Description": "<span style=\"font-style:italic\"><b>Adresa:<\/b> Str. Ștefan Odobleja, nr.59 ,&nbsp;&nbsp;&nbsp;&nbsp;&nbsp;&nbsp;&nbsp; Loc. Drobeta Turnu-Severin, Mehedinți<br>cod poștal: 220145<br><b>Contact:<\/b> tel. 0352\/401621<br><b>Program:<\/b> Luni - Vineri, 9.00 - 17.00<br><\/span>" }, "geometry": { "type": "Point", "coordinates": [ 22.661335, 44.625694, 0.0 ] } },
{ "type": "Feature", "properties": { "Name": "Biblioteca comunală Malovăț, MH", "Description": "<div dir=\"ltr\"><b>Adresa:<\/b> <i>sat<\/i>. Malovăț, <i>com.<\/i> Malovăț, <i>jud. <\/i>Mehedinți<br><b>cod poștal:<\/b>227315<br><b>Contact:<\/b> Tel: 0252\/342.320<\/div>" }, "geometry": { "type": "Point", "coordinates": [ 22.722122, 44.706295, 0.0 ] } },
{ "type": "Feature", "properties": { "Name": "Biblioteca Comunală Izvoru Bârzii, MH", "Description": "<b>Adresa:<\/b><i> sat.<\/i> Izvoru Bârzii,<i> com.<\/i> Izvoru Bârzii, <i>jud.<\/i> Mehedinți<br><i>cod poștal<\/i>: 227295<br><b>Contact:<\/b> Tel: 0252 342 443<br>" }, "geometry": { "type": "Point", "coordinates": [ 22.672125, 44.705475, 0.0 ] } },
{ "type": "Feature", "properties": { "Name": "Biblioteca Comunei Daia, GR", "Description": "<div dir=\"ltr\">Str. Tomatelor, Nr. 65, Daia, Giurgiu<\/div>" }, "geometry": { "type": "Point", "coordinates": [ 25.989431, 43.987091, 0.0 ] } },
{ "type": "Feature", "properties": { "Name": "Biblioteca Comunală Oinacu, GR", "Description": "<div dir=\"ltr\">Str. Trandafirilor, 087175<\/div>" }, "geometry": { "type": "Point", "coordinates": [ 26.016661, 43.953571, 0.0 ] } },
{ "type": "Feature", "properties": { "Name": "Biblioteca Comunală „Vasile Rusescu”, Gostinu, GR", "Description": "<div dir=\"ltr\">087110, Gostinu<\/div>" }, "geometry": { "type": "Point", "coordinates": [ 26.122026, 43.996471, 0.0 ] } },
{ "type": "Feature", "properties": { "Name": "Biblioteca Comunală Băneasa, GR", "Description": "<div dir=\"ltr\">Str. Tufanului<\/div>" }, "geometry": { "type": "Point", "coordinates": [ 26.065289, 44.047443, 0.0 ] } },
{ "type": "Feature", "properties": { "Name": "Biblioteca Comunală Prundu, GR", "Description": "<div dir=\"ltr\">DN 41<\/div>" }, "geometry": { "type": "Point", "coordinates": [ 26.227097, 44.097237, 0.0 ] } },
{ "type": "Feature", "properties": { "Name": "Biblioteca Municipală Orșova, jud. Mehedinți", "Description": "<div dir=\"ltr\"><b>Adresa:<\/b> <i>str.<\/i> Porțile de Fier, nr. 32 <i>,  Loc.<\/i> Orșova,<i> jud.<\/i> Mehedinți<br>cod poștal: 225200<br><b>Contact:<\/b> Tel: 0252 360146<br><b>Program: <\/b><\/div>" }, "geometry": { "type": "Point", "coordinates": [ 22.397367, 44.727116, 0.0 ] } },
{ "type": "Feature", "properties": { "Name": "Biblioteca Comunală Eșelnița, MH", "Description": "<b>Adresa:<i> <\/i><\/b><i>str. Teilor<\/i>, nr. 546,&nbsp; <i>loc<\/i>. Eșelnița,<i> jud. <\/i>Mehedinți<br><i>cod poștal<\/i>: 227195<br><b>Contact:<\/b> 0252 365 070 <br><b>Program:<\/b> 8.00 - 14.00<br>" }, "geometry": { "type": "Point", "coordinates": [ 22.360386, 44.705853, 0.0 ] } },
{ "type": "Feature", "properties": { "Name": "Biblioteca Comunală Dubova, MH", "Description": "<b>Adresa:<\/b><i> loc.<\/i> Dubova, <i>jud.<\/i> Mehedinți<br><i>cod poștal:<\/i> 227170<br><b>Contact:<\/b> 0252 368 002<br><b>Program: <\/b><br>" }, "geometry": { "type": "Point", "coordinates": [ 22.257463, 44.620708, 0.0 ] } },
{ "type": "Feature", "properties": { "Name": "Biblioteca Comunală Șvinița, MH", "Description": "<b>Adresa:<i> <\/i><\/b><i>loc<\/i>. Șvinița. <i>jud.<\/i> Mehedinți<br><i>cod poștal: <\/i>227440<br><b>Contact:<\/b> 0252 368 253 <br><b>Program: <\/b><br>" }, "geometry": { "type": "Point", "coordinates": [ 22.106487, 44.497379, 0.0 ] } },
{ "type": "Feature", "properties": { "Name": "Biblioteca Orășenească Mihăilești, Giurgiu", "Description": "<div dir=\"ltr\">Calea București, Nr. 142<\/div>" }, "geometry": { "type": "Point", "coordinates": [ 25.906532, 44.324261, 0.0 ] } },
{ "type": "Feature", "properties": { "Name": "Biblioteca Orășenească Agnita, Sibiu", "Description": "<div dir=\"ltr\">Strada 1 Decembrie, nr. 42, 555100<br><a href=\"http:\/\/bibliotecaorase.ucoz.ro\/\" target=\"_blank\">http:\/\/bibliotecaorase.ucoz.ro\/<\/a><br><a href=\"https:\/\/www.facebook.com\/agnita.biblioteca?fref=ts\" target=\"_blank\">https:\/\/www.facebook.com\/agnita.biblioteca?fref=ts<\/a><\/div>" }, "geometry": { "type": "Point", "coordinates": [ 24.624912, 45.975567, 0.0 ] } },
{ "type": "Feature", "properties": { "Name": "Biblioteca Municipală „St.L. Roth”, Mediaș", "Description": "<div dir=\"ltr\">Piaţa Regele Ferdinand I, Nr.1, Mediaș<br><a href=\"http:\/\/bibliotecarothmedias.wordpress.com\/\" target=\"_blank\">http:\/\/bibliotecarothmedias.wordpress.com\/<\/a><br><a href=\"http:\/\/bibliotecamedias2008.wordpress.com\/\" target=\"_blank\">http:\/\/bibliotecamedias2008.wordpress.com\/<\/a><br><a href=\"https:\/\/www.facebook.com\/pages\/Biblioteca-Municipala-StL-Roth-Medias\/259884900694720\" target=\"_blank\">https:\/\/www.facebook.com\/pages\/Biblioteca-Municipala-StL-Roth-Medias\/259884900694720<\/a><\/div>" }, "geometry": { "type": "Point", "coordinates": [ 24.350014, 46.165134, 0.0 ] } },
{ "type": "Feature", "properties": { "Name": "Biblioteca Pedagogică Națională „I.C. Petrescu”, București", "Description": "<div dir=\"ltr\">Str. Zalomit Z. Ion, 12, Bucuresti-Sector 1, Bucuresti, 10151<br><a href=\"http:\/\/www.bpn.ro\/\" target=\"_blank\">http:\/\/www.bpn.ro\/<\/a><\/div>" }, "geometry": { "type": "Point", "coordinates": [ 26.093559, 44.435333, 0.0 ] } },
{ "type": "Feature", "properties": { "Name": "Biblioteca Militară Națională", "Description": "<div dir=\"ltr\">Strada Constantin Mile 1, București, 010141<\/div>" }, "geometry": { "type": "Point", "coordinates": [ 26.096939, 44.434799, 0.0 ] } },
{ "type": "Feature", "properties": { "Name": "Biblioteca Comunala Halchiu, BV", "Description": "<div dir=\"ltr\">Str. Feldioarei nr. 471<br>Halchiu<br><\/div>" }, "geometry": { "type": "Point", "coordinates": [ 25.545361, 45.762405, 0.0 ] } },
{ "type": "Feature", "properties": { "Name": "Biblioteca Comunala Feldioara, BV", "Description": "<div dir=\"ltr\">Str. Octavian Goga, Nr.57<br>Feldioara<br><\/div>" }, "geometry": { "type": "Point", "coordinates": [ 25.593359, 45.819485, 0.0 ] } },
{ "type": "Feature", "properties": { "Name": "Biblioteca Academiei Tehnice Militare, București", "Description": "<div dir=\"ltr\">Bulevardul George Coşbuc nr. 39-49, Sector 5, București, 050141<br><a href=\"http:\/\/www.mta.ro\/biblioteca.php\" target=\"_blank\">http:\/\/www.mta.ro\/biblioteca.php<\/a><br>&nbsp;<\/div>" }, "geometry": { "type": "Point", "coordinates": [ 26.085234, 44.418419, 0.0 ] } },
{ "type": "Feature", "properties": { "Name": "Biblioteca Institutului Francez, București", "Description": "<font face=\"arial\" size=\"2\">Bd. Dacia, nr. 77<\/font><div><font face=\"arial\" size=\"2\"><a href=\"http:\/\/mediatecafranceza.wordpress.com\/\" target=\"_blank\">http:\/\/mediatecafranceza.wordpress.com\/<\/a><\/font><\/div>" }, "geometry": { "type": "Point", "coordinates": [ 26.104664, 44.446526, 0.0 ] } },
{ "type": "Feature", "properties": { "Name": "Biblioteca Institutului Italian de Cultură „Vito Grasso”, București", "Description": "<div>Aleea Alexandru, nr. 41, 011822<\/div><div><a href=\"http:\/\/www.iicbucarest.esteri.it\/IIC_Bucarest\" target=\"_blank\">http:\/\/www.iicbucarest.esteri.it\/IIC_Bucarest<\/a><\/div><div>Catalog: <a href=\"http:\/\/www.bibliowin.it\/iic\/icbu\/homepage.htm\" target=\"_blank\">http:\/\/www.bibliowin.it\/iic\/icbu\/homepage.htm<\/a><\/div>" }, "geometry": { "type": "Point", "coordinates": [ 26.087927, 44.458801, 0.0 ] } },
{ "type": "Feature", "properties": { "Name": "Biblioteca Municipală Carei", "Description": "<div dir=\"ltr\">Str. Maniu Iuliu, 10, Carei, Satu-Mare, 445100<br><a href=\"https:\/\/www.facebook.com\/pages\/Biblioteca-Municipal%C4%83-Carei\/243707999077330?fref=ts\" target=\"_blank\">https:\/\/www.facebook.com\/pages\/Biblioteca-Municipal%C4%83-Carei\/243707999077330?fref=ts<\/a><\/div>" }, "geometry": { "type": "Point", "coordinates": [ 22.464769, 47.689003, 0.0 ] } },
{ "type": "Feature", "properties": { "Name": "Filiala „Batthyaneum”, Biblioteca Naţională a României ", "Description": "<div dir=\"ltr\">Str. Gabriel Bethlen Nr. 1, 51009, Alba Iulia<\/div>" }, "geometry": { "type": "Point", "coordinates": [ 23.570486, 46.07048, 0.0 ] } },
{ "type": "Feature", "properties": { "Name": "Biblioteca Orăşenească Săveni, jud. Botoșani", "Description": "<div dir=\"ltr\">Str. Dr. Ciucă nr. 3, Săveni - 715300<br>jud. Botoșani<\/div>" }, "geometry": { "type": "Point", "coordinates": [ 26.857065, 47.957039, 0.0 ] } },
{ "type": "Feature", "properties": { "Name": "Biblioteca Orăşenească Darabani, jud. Botoșani", "Description": "<div dir=\"ltr\">Str. Lucian Valea nr. 1, Darabani - 715100<br>jud. Botoșani<br>http:\/\/bibliotecaorasuluidarabani.wordpress.com<\/div>" }, "geometry": { "type": "Point", "coordinates": [ 26.589359, 48.183228, 0.0 ] } },
{ "type": "Feature", "properties": { "Name": "Biblioteca Comunală Stăuceni, BT", "Description": "<div dir=\"ltr\">Stăuceni - 717355<br>jud. Botoșani<\/div>" }, "geometry": { "type": "Point", "coordinates": [ 26.748116, 47.729713, 0.0 ] } },
{ "type": "Feature", "properties": { "Name": "Biblioteca Municipală Dorohoi, Botoșani", "Description": "<div dir=\"ltr\">Str. Alexandru Ioan Cuza nr. 43, Dorohoi - 715200<br>jud. Botoșani<\/div>" }, "geometry": { "type": "Point", "coordinates": [ 26.390738, 47.953354, 0.0 ] } },
{ "type": "Feature", "properties": { "Name": "Biblioteca Comunală Dârvari, MH", "Description": "<div dir=\"ltr\"><b>Adres<\/b>a:<i> loc<\/i>. Dârvari,<i> jud<\/i>. Mehedinți<br><i>cod poștal<\/i>: 227155<br>Contact: 0252 392.106<br><b>Program:<\/b><\/div>" }, "geometry": { "type": "Point", "coordinates": [ 23.047262, 44.196342, 0.0 ] } },
{ "type": "Feature", "properties": { "Name": "Biblioteca Comunală Obârșia de Câmp, MH", "Description": "<b>Adresa:<\/b> <i>loc.<\/i> Obârșia de Câmp,<i> jud.<\/i> Mehedinți<br><i>Cod poștal:<\/i>227325<br><b>Contact:<\/b>0252 391.851<br><b>Program:<\/b><br>" }, "geometry": { "type": "Point", "coordinates": [ 22.981102, 44.172539, 0.0 ] } },
{ "type": "Feature", "properties": { "Name": "Biblioteca Comunală Oprișor, MH", "Description": "<b>Adresa:<\/b><i> loc<\/i>. Oprișor.<i> jud.<\/i> Mehedinți<br><i>cod poștal:<\/i>227335<br><b>Contact<\/b>:0252 391.304<br><b>Program:<\/b><br><b>Dotări: <br><\/b>- 7400 documente;<b><br>- <\/b>4 calculatoare cu acces Internet;<br>- căști audio;<br>- webcam-uri;<br>- videoproiector cu ecran de proiecție;<br>- copiator, scanner, imprimantă;<br><b><font color=\"#cc0000\">Servicii oferite:<\/font><\/b><br>- împrumutul documentelor la domiciliu;<br>- acces la expoziții organizate în spațiul bibliotecii;<br>- acces la buletinele informative ale partenerilor&amp; colaboratorilor;<br>- acces gratuit la Internet ;<br>- acces la echipamentele de multiplicare, scanare, copiere, printare;<br>- servicii de îndrumare pentru completarea formularelor altor instituții publice;<br>- cursuri de instruire în domeniile : IT, agricol, financiar (sau la cererea utilizatorilor);<br>- servicii pentru petrecerea timpului liber:<br>+ ateliere tematice: teatru, poezie, lucru manual etc;<br>    + videoproiecții filme, documentare etc. ;<b><br><br>Referințe:<br><br><a href=\"https:\/\/www.facebook.com\/biblioteca.oprisor\" target=\"_blank\">Pagina Facebook<\/a><br><br><br>Referințe: <br><br><a href=\"https:\/\/www.facebook.com\/biblioteca.oprisor\" target=\"_blank\">Facebook<\/a><br><\/b>" }, "geometry": { "type": "Point", "coordinates": [ 23.075844, 44.288647, 0.0 ] } },
{ "type": "Feature", "properties": { "Name": "Biblioteca Comunală Gogoșu, MH", "Description": "<b>Adresa<\/b>: <i>loc.<\/i> Gogoșu, <i>jud.<\/i> Mehedinți<br><i>cod poștal:<\/i>227220<br><b>Contact:0252 357 008<br><\/b><table><tbody><tr><td valign=\"top\"><br><\/td><td><br><\/td><\/tr><\/tbody><\/table><br><b>Program:<\/b><br>" }, "geometry": { "type": "Point", "coordinates": [ 22.59252, 44.373882, 0.0 ] } },
{ "type": "Feature", "properties": { "Name": "Biblioteca Comunală Salcia, MH", "Description": "<b>Adresa:<\/b> <i>loc<\/i>. Salcia,<i> jud.<\/i> Mehedinți<br><i>cod poștal:<\/i>227425<br><b>Contact<\/b>:0252\/391.603<br><b>Program:<\/b><br>" }, "geometry": { "type": "Point", "coordinates": [ 22.932838, 44.14019, 0.0 ] } },
{ "type": "Feature", "properties": { "Name": "Biblioteca Comunală Cujmir, MH", "Description": "<b>Adresa:<\/b><i> loc<\/i>, Cujmir<i>, jud<\/i>. Mehedinți<br><i>cod poștal<\/i>: 227150<br><b>Contact:<\/b>0252\/390.011<br><b>Program:<\/b><br>" }, "geometry": { "type": "Point", "coordinates": [ 22.926842, 44.20734, 0.0 ] } },
{ "type": "Feature", "properties": { "Name": "Biblioteca Comunală Gârla Mare, MH", "Description": "<b>Adresa:<\/b> <i>loc.<\/i> Garla Mare,<i> jud.<\/i> Mehedinți<br><i>cod poștal:<\/i>227210<br><b>Contact:<\/b>0252 393.012<br><b>Program:<\/b><br>" }, "geometry": { "type": "Point", "coordinates": [ 22.779776, 44.207787, 0.0 ] } },
{ "type": "Feature", "properties": { "Name": "Biblioteca Comunală Gruia, MH", "Description": "<b>Adresa:<\/b><i> loc.<\/i> Gruia, <i>jud.<\/i> Mehedinți<br><i>cod poștal:<\/i>227240<br><b>Contact:<\/b> 0252 394.001<br><b>Program:<\/b><br>" }, "geometry": { "type": "Point", "coordinates": [ 22.70513, 44.266903, 0.0 ] } },
{ "type": "Feature", "properties": { "Name": "Biblioteca Comunală Jiana, MH", "Description": "<b>Adresa:<\/b><i> loc.<\/i> Jiana, <i>județul<\/i> Mehedinți<br><i>cod poștal:<\/i>227305<br><b>Contact:<\/b>0252 358845<br><b>Program:<\/b><br>" }, "geometry": { "type": "Point", "coordinates": [ 22.711552, 44.403267, 0.0 ] } },
{ "type": "Feature", "properties": { "Name": "Biblioteca Orășenească Vânju Mare, MH", "Description": "<b>Adresa:<\/b> <i>str.<\/i> Rahova, <i>nr<\/i>.1,<i> loc.<\/i> Vânju Mare, <b>jud<\/b>. Mehedinți<br><i>cod poștal<\/i>: 225400<br><b>Contact<\/b>: 0252 350080 <br><b>Program<\/b>:8.00 - 16.00<br>" }, "geometry": { "type": "Point", "coordinates": [ 22.872635, 44.424656, 0.0 ] } },
{ "type": "Feature", "properties": { "Name": "Biblioteca Comunală Vârfu Câmpului, BT", "Description": "<div dir=\"ltr\">Vârfu Câmpului - 717450 jud. Botoșani<\/div>" }, "geometry": { "type": "Point", "coordinates": [ 26.314116, 47.856266, 0.0 ] } },
{ "type": "Feature", "properties": { "Name": "Biblioteca Comunală Vlăsinești, BT", "Description": "<div dir=\"ltr\">Vlăsineşti - 717465 jud. Botoșani<\/div>" }, "geometry": { "type": "Point", "coordinates": [ 26.884705, 47.937191, 0.0 ] } },
{ "type": "Feature", "properties": { "Name": "Biblioteca Comunală Săucești, BC", "Description": "<div dir=\"ltr\">[ESTE NEVOIE DE ADRESA SAU MACAR DRUMUL JUDETEAN TRECUT. DANKE!]<\/div>" }, "geometry": { "type": "Point", "coordinates": [ 26.936008, 46.61797, 0.0 ] } },
{ "type": "Feature", "properties": { "Name": "Biblioteca Comunală Mărgineni, BC", "Description": "" }, "geometry": { "type": "Point", "coordinates": [ 26.858532, 46.583382, 0.0 ] } },
{ "type": "Feature", "properties": { "Name": "Biblioteca Comunală Podu Turcului, BC", "Description": "" }, "geometry": { "type": "Point", "coordinates": [ 27.384142, 46.200794, 0.0 ] } },
{ "type": "Feature", "properties": { "Name": "Biblioteca Orășenească „Profesor Ion Buzea”, Măcin", "Description": "<div dir=\"ltr\">Str. Florilor, Nr. 13, Măcin, 825300<br><a href=\"http:\/\/biblioteca-macin.blogspot.com\/\" target=\"_blank\">http:\/\/biblioteca-macin.blogspot.com\/<\/a><\/div>" }, "geometry": { "type": "Point", "coordinates": [ 28.133631, 45.247303, 0.0 ] } },